,City,Latitude,Longitude,Country,pm25_present,pm25_unit,pm25_mean,pm25_median,no2_present,no2_unit,no2_mean,no2_median,o3_present,o3_unit,o3_mean,o3_median,pm10_present,pm10_unit,pm10_mean,pm10_median,co_present,co_unit,co_mean,co_median,so2_present,so2_unit,so2_mean,so2_median,bc_present,bc_unit,bc_mean,bc_median
0,Alto Hospicio,-20.290466881209,-70.100192427636,CL,True,µg/m³,5.666666666666667,6.0,False,,,,False,,,,False,,,,False,,,,False,,,,False,,,
1,北京市,39.8673,116.434,CN,True,µg/m³,8.416666666666666,5.5,True,µg/m³,36.291666666666664,35.5,True,µg/m³,67.91666666666667,68.5,True,µg/m³,38.083333333333336,31.0,True,µg/m³,341.6666666666667,250.0,True,µg/m³,2.5,2.0,False,,,
2,South East Queensland,-27.4296,153.158,AU,True,µg/m³,5.58888888888889,5.5,True,ppm,0.0030606060606060614,0.001,True,ppm,0.027875000000000014,0.028,True,µg/m³,17.202777777777776,16.1,True,ppm,0.10000000000000002,0.1,True,ppm,-666.5987333333331,0.001,False,,,
3,Sydney East,-33.9333333,151.0452778,AU,True,µg/m³,4.3999999999999995,4.4,True,ppm,0.0016133333333333336,0.0017000000000000001,True,ppm,0.024333333333333332,0.023,True,µg/m³,9.383333333333333,6.9,True,ppm,0.12222222222222223,0.1,True,ppm,0.13766666666666666,0.166,False,,,
4,Central & Western,22.285,114.14444444444445,HK,True,µg/m³,22.900000000000002,22.5,True,µg/m³,24.55,24.55,True,µg/m³,56.650000000000006,56.650000000000006,True,µg/m³,35.45,35.45,False,,,,True,µg/m³,3.25,3.25,False,,,
5,Tocopilla,-22.085518710314,-70.188682515839,CL,True,µg/m³,7.0,7.86,True,µg/m³,5.716666666666666,3.83,True,µg/m³,15.436666666666667,16.07,True,µg/m³,23.893333333333334,23.47,True,µg/m³,716.4,716.85,True,µg/m³,3.5216666666666665,3.83,False,,,
6,Eastern,22.282777777777778,114.21944444444445,HK,True,µg/m³,21.333333333333332,21.2,True,µg/m³,29.633333333333336,31.6,True,µg/m³,52.5,50.2,True,µg/m³,32.0,32.9,False,,,,True,µg/m³,1.1,1.1,False,,,
7,Bush Estate,55.862281,-3.205782,GB,False,,,,True,µg/m³,4.5,4.5,True,µg/m³,50.5,50.5,False,,,,False,,,,False,,,,False,,,
8,Zagorje,46.131074,14.996085,SI,False,,,,False,,,,False,,,,True,µg/m³,23.0,21.0,False,,,,False,,,,False,,,
9,Bogota,4.637735,-74.09486,CO,True,µg/m³,23.666666666666668,24.0,False,,,,False,,,,False,,,,False,,,,False,,,,False,,,
10,Tuzla,44.52361111111111,18.60027777777778,BA,True,µg/m³,66.26,60.2,True,µg/m³,18.328571428571426,15.3,True,µg/m³,8.350000000000001,7.550000000000001,False,,,,True,µg/m³,1796.0,1273.0,True,µg/m³,19.857142857142858,20.1,False,,,
11,Edinburgh,55.945589,-3.182186,GB,True,µg/m³,9.0,9.0,True,µg/m³,9.0,9.0,True,µg/m³,43.5,43.5,True,µg/m³,13.0,13.0,False,,,,True,µg/m³,19.0,19.0,False,,,
12,Kowloon,22.322499999999998,114.16833333333334,HK,True,µg/m³,24.842857142857145,25.0,True,µg/m³,41.07777777777778,33.3,True,µg/m³,45.14444444444445,49.2,True,µg/m³,36.12222222222223,37.0,True,µg/m³,777.0333333333333,759.3,True,µg/m³,3.1777777777777776,3.3,False,,,
13,Lukavac,44.53330277777778,18.534891666666667,BA,True,µg/m³,149.73333333333335,154.8,True,µg/m³,13.866666666666667,13.6,True,µg/m³,8.533333333333333,8.4,False,,,,True,µg/m³,2894.0,2970.0,True,µg/m³,0.1,0.1,False,,,
14,Glasgow,55.865782,-4.243631,GB,True,µg/m³,5.0,5.0,True,µg/m³,31.125,16.5,True,µg/m³,48.0,48.0,True,µg/m³,7.0,7.0,False,,,,False,,,,False,,,
15,Calama,-22.462144644634,-68.92806169339,CL,True,µg/m³,8.031111111111109,8.39,False,,,,True,µg/m³,40.88666666666666,41.85,True,µg/m³,41.17111111111112,43.87,True,µg/m³,331.49666666666667,320.28,True,µg/m³,0.9500000000000001,0.93,False,,,
16,Saraburi,14.523536277394,100.92917127159,TH,False,,,,False,,,,False,,,,True,µg/m³,74.25,57.5,True,ppm,0.42,0.42,False,,,,False,,,
17,Amsterdam,52.3597,4.86621,NL,True,µg/m³,-758.1,-999.0,True,µg/m³,-713.7194444444444,-999.0,True,µg/m³,-658.9222222222222,-999.0,True,µg/m³,-744.6666666666666,-999.0,True,µg/m³,-665.8945222222222,-999.0,True,µg/m³,-832.4,-999.0,False,,,
18,Kathmandu,27.738703,85.336205,NP,True,µg/m³,45.5,43.0,False,,,,False,,,,False,,,,False,,,,False,,,,False,,,
19,Manama,26.204697,50.57083,BH,True,µg/m³,23.0,23.5,False,,,,False,,,,False,,,,False,,,,False,,,,False,,,
20,Hyderabad,17.349694,78.451437,IN,True,µg/m³,76.77272727272727,74.0,True,µg/m³,47.50999999999999,48.4,True,µg/m³,20.724999999999998,20.6,True,µg/m³,128.0,113.0,True,µg/m³,613.0,610.0,True,µg/m³,9.114999999999998,9.85,False,,,
21,Medellin,6.3790379,-75.4509125,CO,True,µg/m³,-492.77373512820515,20.0,True,ppm,-3332.9853313809517,0.020679200000000002,True,ppm,-833.2444301820832,0.0039,True,µg/m³,-1624.827077777778,47.0,True,ppm,-8887.713047777777,-9999.0,True,ppm,-3332.998133333333,0.0019,False,,,
22,IJmuiden,52.463,4.60184,NL,True,µg/m³,-661.5333333333333,-999.0,True,µg/m³,-659.1666666666666,-999.0,False,,,,True,µg/m³,-659.8333333333334,-999.0,True,µg/m³,-665.8908666666666,-999.0,True,µg/m³,-665.1,-999.0,False,,,
23,Curacao,12.1696,-68.99,CW,True,µg/m³,10.333333333333334,11.0,False,,,,False,,,,False,,,,False,,,,False,,,,False,,,
24,Jakarta,-6.236704,106.79324,ID,True,µg/m³,50.666666666666664,53.5,False,,,,False,,,,False,,,,False,,,,False,,,,False,,,
25,Kampala,0.300225,32.591553,UG,True,µg/m³,61.666666666666664,62.0,False,,,,False,,,,False,,,,False,,,,False,,,,False,,,
26,Addis Ababa,8.996519,38.725433,ET,True,µg/m³,-493.6666666666667,-495.5,False,,,,False,,,,False,,,,False,,,,False,,,,False,,,
27,Delhi,28.7500499,77.1112615,IN,True,µg/m³,285.2748695652174,276.41,True,µg/m³,55.84254385964913,43.135000000000005,True,µg/m³,13.532660550458726,7.2,True,µg/m³,400.0445918367347,392.01,True,µg/m³,2666.3242990654207,2890.0,True,µg/m³,14.469428571428576,15.45,False,,,
28,Wijk aan Zee,52.494,4.60199,NL,True,µg/m³,-660.5666666666667,-999.0,True,µg/m³,-655.6999999999999,-999.0,False,,,,True,µg/m³,-659.4,-999.0,True,µg/m³,-665.8856666666667,-999.0,True,µg/m³,-662.8000000000001,-999.0,False,,,
29,Živinice,44.45388888888889,18.648333333333333,BA,True,µg/m³,103.7,109.9,True,µg/m³,14.6,15.6,True,µg/m³,9.133333333333333,9.0,False,,,,True,µg/m³,2898.0,2943.0,True,µg/m³,32.199999999999996,34.8,False,,,
30,New Territories,22.28888888888889,113.94361111111111,HK,True,µg/m³,22.77777777777778,23.4,True,µg/m³,26.150000000000002,25.1,True,µg/m³,56.92222222222223,58.349999999999994,True,µg/m³,36.63333333333333,35.55,True,µg/m³,647.9000000000001,668.9,True,µg/m³,4.522222222222222,4.25,False,,,
31,Badhoevedorp,52.334,4.77401,NL,True,µg/m³,-661.0666666666667,-999.0,True,µg/m³,-658.3666666666667,-999.0,False,,,,True,µg/m³,-659.1333333333333,-999.0,True,µg/m³,-665.9152333333333,-999.0,False,,,,False,,,
32,Chon Buri,13.360626576582,100.98454092591,TH,False,,,,False,,,,False,,,,True,µg/m³,39.25,32.5,True,ppm,1.1749999999999998,1.1749999999999998,False,,,,False,,,
33,Zegveld,52.138,4.83819,NL,False,,,,True,µg/m³,19.070000000000004,19.05,True,µg/m³,21.98,21.42,True,µg/m³,16.376666666666665,15.95,True,µg/m³,-995.0,-995.0,False,,,,False,,,
34,Cabauw,51.9745,4.9233,NL,True,µg/m³,11.378666666666668,12.0124,True,µg/m³,-659.75,-998.0,True,µg/m³,20.773333333333337,20.53,True,µg/m³,15.950000000000001,17.23,True,µg/m³,0.25225666666666663,0.24462,True,µg/m³,0.4033333333333333,0.44,False,,,
35,Nijmegen,51.8382,5.85694,NL,True,µg/m³,10.714063333333334,10.557099999999998,True,µg/m³,18.661666666666665,17.755000000000003,True,µg/m³,29.203333333333333,29.86,True,µg/m³,13.816666666666668,12.11,True,µg/m³,-332.6561566666667,0.21751,False,,,,False,,,
36,Grangemouth,56.010319,-3.704399,GB,True,µg/m³,6.0,6.0,True,µg/m³,15.0,15.0,False,,,,True,µg/m³,10.0,10.0,False,,,,True,µg/m³,1.0,1.0,False,,,
37,Lampang,18.247769049494,99.506314173843,TH,False,,,,False,,,,False,,,,True,µg/m³,19.7,18.5,True,ppm,0.6783333333333333,0.6699999999999999,False,,,,False,,,
38,Hoogvliet,51.8674,4.35524,NL,True,µg/m³,-999.0,-999.0,True,µg/m³,-661.3666666666667,-999.0,True,µg/m³,-656.6999999999999,-999.0,True,µg/m³,-660.3000000000001,-999.0,False,,,,False,,,,False,,,
39,Rotterdam Zuid,51.8911,4.48069,NL,True,µg/m³,-662.5166666666667,-999.0,True,µg/m³,-658.2333333333332,-999.0,False,,,,True,µg/m³,-661.2333333333333,-999.0,False,,,,False,,,,False,,,
40,Antofagasta,-23.61354215815,-70.383315682411,CL,True,µg/m³,9.666666666666666,8.0,False,,,,False,,,,True,µg/m³,31.666666666666668,31.0,False,,,,True,µg/m³,1.5599999999999998,1.59,False,,,
41,Ridderkerk,51.8694,4.58006,NL,True,µg/m³,-661.4,-999.0,True,µg/m³,-657.9666666666667,-999.0,True,µg/m³,-658.7666666666667,-999.0,True,µg/m³,-662.1666666666666,-999.0,False,,,,False,,,,False,,,
42,Rotterdam,51.9142,4.47992,NL,True,µg/m³,-215.47970444444445,7.84054,True,µg/m³,-317.4483333333333,18.869999999999997,True,µg/m³,27.48333333333333,25.16,True,µg/m³,-323.52500000000003,11.835,False,,,,False,,,,False,,,
43,Huasco,-28.466423001884,-71.221554279327,CL,True,µg/m³,8.8275,9.235,True,µg/m³,13.77125,7.555,True,µg/m³,35.498333333333335,35.290000000000006,False,,,,True,µg/m³,2862.986666666667,2863.05,True,µg/m³,4.241999999999999,3.92,False,,,
44,Rotterdam Noord ,51.9271,4.46134,NL,False,,,,True,µg/m³,-658.3666666666667,-999.0,True,µg/m³,-658.5,-999.0,True,µg/m³,-659.2666666666667,-999.0,False,,,,False,,,,False,,,
45,Sai Kung,22.317777777777778,114.25944444444444,HK,True,µg/m³,18.266666666666666,19.5,True,µg/m³,20.6,20.3,True,µg/m³,65.96666666666667,66.8,True,µg/m³,30.233333333333334,30.2,True,µg/m³,870.8000000000001,867.1,True,µg/m³,3.8666666666666667,4.0,False,,,
46,Schiedam,51.9214,4.40139,NL,True,µg/m³,-663.1333333333333,-999.0,True,µg/m³,-660.0666666666667,-999.0,True,µg/m³,-656.1333333333333,-999.0,True,µg/m³,-661.1333333333333,-999.0,False,,,,False,,,,False,,,
47,Chesterfield,53.231722,-1.456944,GB,True,µg/m³,9.25,9.0,True,µg/m³,5.75,6.0,False,,,,True,µg/m³,16.0,16.0,False,,,,False,,,,False,,,
48,Maassluis,51.932,4.22802,NL,True,µg/m³,-661.3333333333334,-999.0,True,µg/m³,-659.5,-999.0,True,µg/m³,-999.0,-999.0,True,µg/m³,-662.1999999999999,-999.0,False,,,,False,,,,False,,,
49,Hoek v. Holland,51.9778,4.12194,NL,True,µg/m³,-662.9666666666667,-999.0,True,µg/m³,-656.0,-999.0,True,µg/m³,-659.7333333333333,-999.0,True,µg/m³,-661.0333333333333,-999.0,False,,,,False,,,,False,,,
50,Zeppelinfjellet,78.90669,11.88899,NO,False,,,,False,,,,True,µg/m³,76.66666666666667,76.8,False,,,,False,,,,False,,,,False,,,
51,Freirina,-28.507409284386,-71.126531945122,CL,False,,,,False,,,,False,,,,False,,,,False,,,,True,µg/m³,4.388888888888889,4.36,False,,,
52,Derby,52.922983,-1.469507,GB,False,,,,True,µg/m³,13.5,13.5,False,,,,False,,,,False,,,,False,,,,False,,,
53,Ladybower,53.40337,-1.752006,GB,False,,,,True,µg/m³,8.0,8.0,True,µg/m³,60.5,60.5,False,,,,False,,,,True,µg/m³,11.5,11.5,False,,,
54,Grenland,59.13354,9.6219,NO,True,µg/m³,1.7216150793714287,1.6,True,µg/m³,3.32539761296,2.6566222408,True,µg/m³,28.4,28.4,True,µg/m³,4.183842063485715,2.09,False,,,,False,,,,False,,,
55,Sydney North-west,-33.7947222,150.7458333,AU,False,,,,True,ppm,0.0015333333333333334,0.0012,True,ppm,0.020444444444444446,0.02,True,µg/m³,7.155555555555556,7.9,True,ppm,0.03333333333333333,0.0,True,ppm,0.16322222222222224,0.157,False,,,
56,N.T.,22.391111111111112,113.97666666666667,HK,True,µg/m³,26.333333333333332,26.1,True,µg/m³,20.133333333333336,22.2,True,µg/m³,63.5,60.4,True,µg/m³,40.46666666666667,41.1,True,µg/m³,919.1999999999999,912.0,True,µg/m³,4.533333333333333,4.5,False,,,
57,Leicester,52.619823,-1.127311,GB,True,µg/m³,8.5,8.5,True,µg/m³,11.25,11.0,True,µg/m³,59.0,59.0,True,µg/m³,24.5,24.5,False,,,,False,,,,False,,,
58,Zaandam,52.448,4.81671,NL,True,µg/m³,-661.8666666666667,-999.0,True,µg/m³,-658.6333333333333,-999.0,True,µg/m³,-999.0,-999.0,True,µg/m³,-659.6,-999.0,False,,,,False,,,,False,,,
59,Copiapó,-27.370329154948,-70.323906678352,CL,True,µg/m³,7.296666666666667,5.4,False,,,,False,,,,True,µg/m³,45.26,41.48,False,,,,False,,,,False,,,
60,Veldhoven,51.4074,5.39333,NL,True,µg/m³,16.0108,18.059,True,µg/m³,-315.81333333333333,20.12,True,µg/m³,14.743333333333332,15.32,True,µg/m³,19.363333333333333,23.63,False,,,,False,,,,False,,,
61,Geleen,50.9844,5.82223,NL,True,µg/m³,-999.0,-999.0,True,µg/m³,-830.6666666666666,-999.0,False,,,,True,µg/m³,-999.0,-999.0,False,,,,False,,,,False,,,
62,Andacollo,-30.232905425471,-71.095116497375,CL,False,,,,False,,,,False,,,,True,µg/m³,29.329999999999995,17.24,False,,,,False,,,,False,,,
63,Market Harborough,52.554444,-0.772222,GB,False,,,,True,µg/m³,2.5,2.5,True,µg/m³,69.0,69.0,False,,,,False,,,,False,,,,False,,,
64,Maastricht,50.8459,5.71475,NL,True,µg/m³,-999.0,-999.0,True,µg/m³,-660.3333333333334,-999.0,True,µg/m³,-653.8333333333334,-999.0,True,µg/m³,-999.0,-999.0,False,,,,False,,,,False,,,
65,Fijnaart,51.6537,4.51527,NL,False,,,,True,µg/m³,9.726666666666667,8.64,False,,,,True,µg/m³,9.976666666666667,10.83,False,,,,False,,,,False,,,
66,Nottingham,52.95473,-1.146447,GB,True,µg/m³,8.0,8.0,True,µg/m³,15.25,15.5,True,µg/m³,41.5,41.5,True,µg/m³,15.0,15.0,False,,,,True,µg/m³,10.0,10.0,False,,,
67,Zaanstad,52.4202,4.83206,NL,False,,,,True,µg/m³,-999.0,-999.0,False,,,,True,µg/m³,-999.0,-999.0,False,,,,False,,,,False,,,
68,Coquimbo,-29.970390235273,-71.336038250122,CL,True,µg/m³,8.64,8.41,False,,,,False,,,,False,,,,False,,,,False,,,,False,,,
69,Trondheim,63.43038,10.39355,NO,True,µg/m³,15.612556644444444,15.18361425,True,µg/m³,30.30177183975,29.8,False,,,,True,µg/m³,20.803514003700002,21.3,False,,,,False,,,,False,,,
70,South West Queensland,0.0,0.0,AU,True,µg/m³,-4997.3,-4997.3,True,ppm,-370.33299999999997,0.0,True,ppm,-370.31399999999996,0.028,True,µg/m³,-4993.933333333333,-4993.95,True,ppm,-370.3,0.0,False,,,,False,,,
71,Sydney South-west,-34.3075,150.58,AU,True,µg/m³,5.166666666666667,5.2,True,ppm,0.0011722222222222225,0.0010500000000000002,True,ppm,0.02011111111111111,0.0225,True,µg/m³,7.766666666666666,6.5,True,ppm,0.044444444444444446,0.0,True,ppm,0.14194444444444443,0.162,False,,,
72,Hoofddorp,52.3275,4.71501,NL,False,,,,True,µg/m³,-658.4,-999.0,True,µg/m³,-999.0,-999.0,True,µg/m³,-661.1666666666666,-999.0,False,,,,False,,,,False,,,
73,Oude Meer,52.28,4.77077,NL,False,,,,True,µg/m³,-659.2666666666667,-999.0,False,,,,True,µg/m³,-660.4333333333333,-999.0,False,,,,False,,,,False,,,
74,Concón,-32.924568,-71.515399,CL,True,µg/m³,6.0,6.0,True,µg/m³,4.322,6.8,True,µg/m³,24.07166666666667,23.815,False,,,,True,µg/m³,814.1133333333333,816.15,True,µg/m³,5.800000000000001,6.92,False,,,
75,Posterholt,51.1192,6.0424,NL,False,,,,True,µg/m³,14.683333333333335,13.22,True,µg/m³,26.993333333333336,27.29,False,,,,False,,,,False,,,,False,,,
76,Vredepeel,51.5405,5.85307,NL,True,µg/m³,-999.0,-999.0,True,µg/m³,-999.0,-999.0,True,µg/m³,-999.0,-999.0,True,µg/m³,-999.0,-999.0,False,,,,False,,,,False,,,
77,Tap Mun Police Post,22.47138888888889,114.36083333333333,HK,True,µg/m³,21.066666666666666,19.8,True,µg/m³,8.066666666666668,7.5,True,µg/m³,70.96666666666667,71.4,True,µg/m³,37.13333333333333,35.8,True,µg/m³,436.9333333333334,441.1,True,µg/m³,7.066666666666666,6.8,False,,,
78,Cambridge,52.20237,0.124456,GB,False,,,,True,µg/m³,25.5,25.5,False,,,,False,,,,False,,,,False,,,,False,,,
79,Wijnandsrade,50.9023,5.88175,NL,False,,,,True,µg/m³,-327.08666666666664,6.59,True,µg/m³,32.29,32.46,True,µg/m³,9.976666666666667,10.83,False,,,,True,µg/m³,0.08,0.07,False,,,
80,Norwich,52.614193,1.301976,GB,True,µg/m³,7.0,7.0,True,µg/m³,5.0,5.0,True,µg/m³,58.0,58.0,True,µg/m³,12.0,12.0,False,,,,False,,,,False,,,
81,Heerlen,50.9003,5.98685,NL,True,µg/m³,6.063473333333334,6.72334,True,µg/m³,9.066666666666665,8.955,True,µg/m³,49.43666666666667,48.84,True,µg/m³,8.696666666666667,6.99,False,,,,False,,,,False,,,
82,Biest Houtakker,51.5184,5.14845,NL,True,µg/m³,19.966733333333334,19.823,True,µg/m³,21.163333333333334,19.64,True,µg/m³,13.19,13.22,True,µg/m³,30.03,26.19,False,,,,False,,,,False,,,
83,Causeway Bay,22.279999999999998,114.185,HK,True,µg/m³,23.633333333333336,25.0,True,µg/m³,48.73333333333333,52.8,True,µg/m³,34.400000000000006,30.4,True,µg/m³,40.73333333333333,41.4,True,µg/m³,614.0333333333333,616.0,True,µg/m³,5.3,5.1,False,,,
84,Huijbergen,51.4344,4.35984,NL,False,,,,True,µg/m³,12.166666666666666,12.4,True,µg/m³,31.919999999999998,30.21,True,µg/m³,8.27,6.99,False,,,,False,,,,False,,,
85,Sandy,52.132417,-0.300306,GB,True,µg/m³,11.0,11.0,True,µg/m³,7.5,7.5,False,,,,True,µg/m³,17.5,17.5,False,,,,False,,,,False,,,
86,Eindhoven,51.4687,5.47235,NL,False,,,,True,µg/m³,28.138333333333335,27.365000000000002,True,µg/m³,10.783333333333333,11.48,True,µg/m³,19.15,19.15,False,,,,False,,,,False,,,
87,Gladstone,-23.9408,151.351,AU,True,µg/m³,-362.73333333333335,6.65,True,ppm,-158.70880952380952,0.002,True,ppm,0.044333333333333336,0.047,True,µg/m³,-298.9,21.9,True,ppm,0.0,0.0,True,ppm,-158.71152380952378,0.001,False,,,
88,Viña del Mar,-33.020419817382,-71.550092842922,CL,True,µg/m³,8.0,8.0,False,,,,False,,,,True,µg/m³,22.0,22.0,False,,,,False,,,,False,,,
89,Breda,51.6031,4.78102,NL,True,µg/m³,7.84985,8.15414,True,µg/m³,13.934999999999997,13.915,True,µg/m³,34.56333333333333,36.28,True,µg/m³,10.83,7.63,False,,,,False,,,,False,,,
90,Sibton,52.2944,1.463497,GB,False,,,,False,,,,True,µg/m³,60.5,60.5,False,,,,False,,,,False,,,,False,,,
91,Los Andes,-32.844124,-70.592135,CL,False,,,,False,,,,True,µg/m³,53.056666666666665,51.12,False,,,,False,,,,False,,,,False,,,
92,天津市,38.8394,117.145,CN,True,µg/m³,20.6,19.5,True,µg/m³,56.96666666666667,58.0,True,µg/m³,65.2,65.0,True,µg/m³,67.4,66.5,True,µg/m³,933.3333333333334,900.0,True,µg/m³,12.9,11.0,False,,,
93,Central,22.281944444444445,114.15805555555556,HK,True,µg/m³,13.466666666666669,14.3,True,µg/m³,42.333333333333336,43.6,True,µg/m³,47.300000000000004,46.1,True,µg/m³,21.666666666666668,22.4,True,µg/m³,689.9,686.0,True,µg/m³,4.300000000000001,4.3,False,,,
94,Zierikzee,51.6347,3.91662,NL,False,,,,True,µg/m³,13.993333333333332,15.52,True,µg/m³,31.23333333333333,29.64,False,,,,False,,,,False,,,,False,,,
95,London,51.52253,-0.213492,GB,True,µg/m³,8.117647058823529,7.0,True,µg/m³,19.071428571428573,13.5,True,µg/m³,49.64705882352941,55.0,True,µg/m³,16.066666666666666,17.0,False,,,,True,µg/m³,3.375,2.5,False,,,
96,Quintero,-32.794968417299,-71.496099073086,CL,True,µg/m³,4.58,4.77,True,µg/m³,2.701,2.9850000000000003,True,µg/m³,20.386000000000003,20.869999999999997,True,µg/m³,18.451999999999998,19.97,True,µg/m³,331.27250000000004,261.61,True,µg/m³,7.901666666666667,6.8100000000000005,False,,,
97,Philippine,51.2945,3.74948,NL,False,,,,True,µg/m³,-658.8833333333333,-998.0,True,µg/m³,36.00666666666667,38.76,True,µg/m³,10.403333333333334,12.11,False,,,,True,µg/m³,4.133333333333334,3.77,False,,,
98,Den Haag,52.0771,4.28919,NL,True,µg/m³,6.462006666666667,5.38956,True,µg/m³,21.817777777777778,20.04,True,µg/m³,25.645,25.755000000000003,True,µg/m³,15.238888888888889,15.95,False,,,,False,,,,False,,,
99,St Osyth,51.77798,1.049031,GB,False,,,,True,µg/m³,6.5,6.5,True,µg/m³,70.0,70.0,False,,,,False,,,,False,,,,False,,,
100,Westmaas,51.7866,4.45053,NL,False,,,,True,µg/m³,9.020000000000001,8.26,True,µg/m³,35.04333333333333,34.9,True,µg/m³,12.536666666666667,13.39,False,,,,False,,,,False,,,
101,Stanford-le-Hope,51.518167,0.439548,GB,True,µg/m³,6.0,6.0,True,µg/m³,1.5,1.5,False,,,,True,µg/m³,14.0,14.0,False,,,,False,,,,False,,,
102,Dordrecht,51.8007,4.70824,NL,False,,,,True,µg/m³,12.443333333333333,10.48,True,µg/m³,30.453333333333333,31.29,True,µg/m³,9.976666666666667,9.55,False,,,,False,,,,False,,,
103,De Zilk,52.2966,4.51082,NL,True,µg/m³,6.570133333333334,6.59398,True,µg/m³,17.746666666666666,16.29,True,µg/m³,23.600000000000005,24.35,True,µg/m³,14.243333333333334,14.67,False,,,,True,µg/m³,1.0200000000000002,1.07,False,,,
104,Wieringerwerf,52.8037,5.05051,NL,True,µg/m³,11.724933333333334,11.9438,True,µg/m³,31.72,30.52,True,µg/m³,15.743333333333334,16.33,True,µg/m³,19.79,21.07,False,,,,False,,,,False,,,
105,Haarlem,52.3705,4.64232,NL,False,,,,True,µg/m³,22.55,21.15,True,µg/m³,20.12,20.15,True,µg/m³,16.803333333333335,13.39,False,,,,False,,,,False,,,
106,Biddinghuizen,52.4232,5.59338,NL,False,,,,True,µg/m³,17.98333333333333,15.95,True,µg/m³,27.393333333333334,28.09,True,µg/m³,18.083333333333332,19.79,False,,,,False,,,,False,,,
107,Valparaíso,-33.049743798096,-71.614167231712,CL,True,µg/m³,5.05,2.91,False,,,,False,,,,False,,,,False,,,,False,,,,False,,,
108,Weybourne,52.95049,1.122017,GB,False,,,,False,,,,True,µg/m³,60.5,60.5,False,,,,False,,,,False,,,,False,,,
109,Wicken Fen,52.2985,0.290917,GB,False,,,,True,µg/m³,2.0,2.0,True,µg/m³,63.5,63.5,False,,,,False,,,,True,µg/m³,2.0,2.0,False,,,
110,Utrecht,52.0677,5.12051,NL,True,µg/m³,13.626133333333335,13.0022,True,µg/m³,-86.18,24.73,True,µg/m³,14.079999999999998,13.98,True,µg/m³,22.563333333333333,22.990000000000002,False,,,,False,,,,False,,,
111,Machalí,-34.241168,-70.55283,CL,False,,,,False,,,,False,,,,False,,,,False,,,,True,µg/m³,8.37142857142857,7.1,False,,,
112,Breukelen,52.2015,4.98744,NL,True,µg/m³,10.894219999999999,11.8654,True,µg/m³,21.650000000000002,21.88,True,µg/m³,22.099999999999998,21.4,True,µg/m³,17.23,17.23,False,,,,False,,,,False,,,
113,Illawarra,-34.4186111,150.8863889,AU,True,µg/m³,4.533333333333333,4.5,True,ppm,0.001488888888888889,0.0014000000000000002,True,ppm,0.029777777777777778,0.032,True,µg/m³,10.666666666666666,7.2,True,ppm,0.05000000000000001,0.05,True,ppm,0.12955555555555553,0.184,False,,,
114,Rancagua,-34.162314609087,-70.713919225517,CL,True,µg/m³,8.25,7.0,False,,,,False,,,,True,µg/m³,52.32000000000001,50.94,True,µg/m³,444.4533333333334,444.68,True,µg/m³,6.876666666666666,6.94,False,,,
115,Eibergen,52.0918,6.60537,NL,False,,,,True,µg/m³,22.98,21.19,True,µg/m³,10.873333333333335,11.44,True,µg/m³,17.656666666666666,17.23,False,,,,True,µg/m³,1.1333333333333335,0.92,False,,,
116,Rengo,-34.394541417902,-70.852981542328,CL,True,µg/m³,8.5,8.5,False,,,,False,,,,True,µg/m³,44.0,44.0,False,,,,False,,,,False,,,
117,Wekerom,52.1116,5.70842,NL,True,µg/m³,11.2676,11.15,True,µg/m³,19.673333333333332,19.88,True,µg/m³,25.290000000000003,25.66,True,µg/m³,12.963333333333333,12.11,False,,,,False,,,,False,,,
118,San Fernando,-34.579759917069,-70.989685186508,CL,True,µg/m³,6.0,6.0,False,,,,True,µg/m³,31.13333333333333,32.11,True,µg/m³,30.653333333333336,30.92,False,,,,False,,,,False,,,
119,Hellendoorn,52.3883,6.40293,NL,False,,,,True,µg/m³,34.233333333333334,34.05,True,µg/m³,9.636666666666667,9.22,True,µg/m³,18.936666666666667,18.51,False,,,,False,,,,False,,,
120,Barsbeek,52.6541,6.01757,NL,False,,,,True,µg/m³,33.92666666666667,33.18,True,µg/m³,6.04,5.91,True,µg/m³,19.79,19.79,False,,,,False,,,,False,,,
121,Mackay,-21.9995,148.071,AU,False,,,,False,,,,False,,,,True,µg/m³,41.76666666666667,41.95,False,,,,False,,,,False,,,
122,Balk,52.9169,5.57349,NL,False,,,,True,µg/m³,34.86333333333334,33.43,True,µg/m³,6.366666666666667,7.62,True,µg/m³,18.51,18.51,False,,,,False,,,,False,,,
123,Valthermond,52.8757,6.93243,NL,False,,,,True,µg/m³,26.51,26.21,True,µg/m³,6.956666666666667,6.81,True,µg/m³,17.23,18.51,False,,,,False,,,,False,,,
124,Townsville,-19.2509,146.807,AU,True,µg/m³,7.233333333333334,7.2,True,ppm,0.0013333333333333333,0.001,False,,,,True,µg/m³,21.177777777777777,19.9,False,,,,True,ppm,0.0006666666666666666,0.0005,False,,,
125,Kollumerwaard,53.3304,6.27681,NL,True,µg/m³,12.7768,12.9434,True,µg/m³,27.19333333333333,26.82,True,µg/m³,7.8133333333333335,7.6,True,µg/m³,24.48333333333333,26.19,False,,,,True,µg/m³,1.0966666666666667,1.01,False,,,
126,Talca,-35.435141887663,-71.678261499336,CL,True,µg/m³,4.428571428571429,2.0,True,µg/m³,11.125,11.125,True,µg/m³,14.475,14.475,True,µg/m³,12.285714285714286,7.0,True,µg/m³,278.8,278.8,True,µg/m³,2.44,2.44,False,,,
127,Groningen,53.2178,6.5789,NL,True,µg/m³,14.003433333333334,14.3301,True,µg/m³,32.971666666666664,32.07,True,µg/m³,4.34,4.71,True,µg/m³,33.016666666666666,35.15,False,,,,False,,,,False,,,
128,Curicó,-34.974925077541,-71.233967512329,CL,True,µg/m³,2.0,2.0,False,,,,False,,,,True,µg/m³,38.25333333333334,22.62,False,,,,False,,,,False,,,
129,Lower Hunter,-32.9325,151.66,AU,True,µg/m³,4.766666666666667,4.7,True,ppm,0.0022111111111111116,0.0012,True,ppm,0.018888888888888886,0.021,True,µg/m³,8.31111111111111,4.8,True,ppm,0.5499999999999999,0.5,True,ppm,0.11911111111111111,0.172,False,,,
130,Mt Isa,-20.7264,139.498,AU,False,,,,False,,,,False,,,,True,µg/m³,13.566666666666668,13.6,False,,,,True,ppm,0.0003333333333333333,0.0,False,,,
131,Linares,-35.836942234921,-71.592865853985,CL,True,µg/m³,2.5,2.5,False,,,,False,,,,False,,,,False,,,,False,,,,False,,,
132,Talcahuano,-36.735998,-73.118693,CL,True,µg/m³,7.04,7.0649999999999995,True,µg/m³,9.521666666666667,7.53,False,,,,True,µg/m³,9.428888888888888,9.1,True,µg/m³,389.23,389.23,True,µg/m³,4.287999999999999,1.3,False,,,
133,Hualpén,-36.803034,-73.120527,CL,False,,,,False,,,,False,,,,True,µg/m³,4.033333333333333,3.31,False,,,,False,,,,False,,,
134,石家庄市,37.9097,114.3541,CN,True,µg/m³,111.3125,112.5,True,µg/m³,68.4375,68.0,True,µg/m³,75.0,75.0,True,µg/m³,192.125,194.0,True,µg/m³,1256.25,1300.0,True,µg/m³,13.4375,14.5,False,,,
135,Coronel,-37.031702,-73.138689,CL,False,,,,False,,,,False,,,,True,µg/m³,24.97666666666667,24.63,True,µg/m³,468.9866666666667,467.08,True,µg/m³,3.1766666666666663,3.11,False,,,
136,Chillán,-36.616167751711,-72.093040558483,CL,True,µg/m³,4.118333333333333,4.045,False,,,,False,,,,True,µg/m³,25.141666666666666,23.18,False,,,,False,,,,False,,,
137,Central Coast,-32.195,150.6736111,AU,True,µg/m³,5.3999999999999995,5.4,True,ppm,0.0026666666666666666,0.003,True,ppm,0.02966666666666667,0.03,True,µg/m³,12.833333333333334,12.7,True,ppm,0.10000000000000002,0.1,True,ppm,0.0026666666666666666,0.003,False,,,
138,Concepción,-36.784653741124,-73.052063025795,CL,True,µg/m³,8.1,8.1,False,,,,True,µg/m³,10.92,10.58,True,µg/m³,4.5,2.7,True,µg/m³,324.5933333333333,319.9,True,µg/m³,1.55,1.41,False,,,
139,Curanilahue,-37.485131692556,-73.331626473541,CL,True,µg/m³,25.666666666666668,28.0,False,,,,False,,,,False,,,,False,,,,False,,,,False,,,
140,Central Tablelands,-33.4033333,149.5733333,AU,True,µg/m³,3.1666666666666665,3.1,False,,,,False,,,,True,µg/m³,10.033333333333333,9.9,False,,,,False,,,,False,,,
141,Fort William,56.82266,-5.101102,GB,False,,,,True,µg/m³,3.5,3.5,True,µg/m³,63.0,63.0,False,,,,False,,,,False,,,,False,,,
142,Inverness,57.481308,-4.241451,GB,True,µg/m³,6.0,6.0,True,µg/m³,9.5,9.5,False,,,,True,µg/m³,10.0,10.0,False,,,,False,,,,False,,,
143,Hualqui,-36.97743148785,-72.932017713268,CL,True,µg/m³,3.6666666666666665,5.0,True,µg/m³,3.043333333333333,3.53,True,µg/m³,10.450000000000001,11.48,True,µg/m³,11.333333333333334,9.0,False,,,,False,,,,False,,,
144,Lerwick,60.13922,-1.185319,GB,False,,,,False,,,,True,µg/m³,67.5,67.5,False,,,,False,,,,False,,,,False,,,
145,Strath Vaich,57.734456,-4.776583,GB,False,,,,False,,,,True,µg/m³,66.0,66.0,False,,,,False,,,,False,,,,False,,,
146,Middlesbrough,54.569297,-1.220874,GB,False,,,,True,µg/m³,4.0,4.0,True,µg/m³,50.0,50.0,True,µg/m³,19.5,19.5,False,,,,True,µg/m³,17.0,17.0,False,,,
147,North-west Slopes,-31.1105556,150.9141667,AU,False,,,,False,,,,False,,,,True,µg/m³,5.266666666666667,5.3,False,,,,True,ppm,0.15133333333333332,0.152,False,,,
148,South-west Slopes,-36.0516667,146.9741667,AU,True,µg/m³,3.9,3.9,False,,,,False,,,,True,µg/m³,9.683333333333332,9.55,False,,,,True,ppm,0.18000000000000002,0.18,False,,,
149,Los Angeles,-37.471182288689,-72.36146284977,CL,True,µg/m³,5.861999999999999,6.0,False,,,,False,,,,True,µg/m³,7.669999999999999,8.12,False,,,,False,,,,False,,,
150,Newcastle,54.97825,-1.610528,GB,True,µg/m³,12.0,12.0,True,µg/m³,14.0,12.5,True,µg/m³,46.0,46.0,True,µg/m³,14.5,14.5,False,,,,False,,,,False,,,
151,Girardota,6.3785167,-75.443985,CO,False,,,,False,,,,False,,,,True,µg/m³,-6654.0,-9999.0,False,,,,False,,,,False,,,
152,Temuco,-38.74869912298,-72.620788228172,CL,True,µg/m³,7.5,6.0,False,,,,False,,,,True,µg/m³,15.5,14.5,True,µg/m³,260.6166666666667,277.48,False,,,,False,,,
153,Upper Hunter - Muswellbrook,-32.2716667,150.8858333,AU,True,µg/m³,7.5,7.5,True,ppm,0.013999999999999999,0.013999999999999999,False,,,,True,µg/m³,21.733333333333334,21.6,False,,,,True,ppm,0.02,0.02,False,,,
154,Stockton-on-Tees,54.516667,-1.358547,GB,True,µg/m³,10.25,10.0,True,µg/m³,7.25,7.0,False,,,,True,µg/m³,16.5,16.5,False,,,,False,,,,False,,,
155,Upper Hunter - Singleton,-32.5297222,151.1497222,AU,True,µg/m³,4.5,4.5,True,ppm,0.0033333333333333335,0.003,False,,,,True,µg/m³,17.266666666666666,17.2,False,,,,True,ppm,0.0023333333333333335,0.002,False,,,
156,唐山市,39.6295,118.144,CN,True,µg/m³,25.833333333333332,25.5,True,µg/m³,59.75,59.0,True,µg/m³,60.5,60.0,True,µg/m³,64.25,59.5,True,µg/m³,1491.6666666666667,1450.0,True,µg/m³,32.416666666666664,28.0,False,,,
157,Osorno,-40.584478665958,-73.11871982209,CL,True,µg/m³,3.0,3.0,False,,,,False,,,,True,µg/m³,11.0,11.0,False,,,,False,,,,False,,,
158,Puerto Montt,-41.399169537038,-72.899522781372,CL,True,µg/m³,18.0,13.0,False,,,,False,,,,False,,,,False,,,,False,,,,False,,,
159,Sunderland,54.88361,-1.406878,GB,True,µg/m³,12.0,12.0,True,µg/m³,6.333333333333333,6.0,True,µg/m³,48.0,48.0,False,,,,False,,,,False,,,,False,,,
160,Itagüí,6.1684971,-75.6443558,CO,True,µg/m³,21.666666666666668,21.0,False,,,,True,ppm,-6665.9971000000005,-9999.0,True,µg/m³,53.166666666666664,49.5,False,,,,False,,,,False,,,
161,Coyhaique,-45.579045667164,-72.049964505825,CL,True,µg/m³,36.333333333333336,35.0,False,,,,True,µg/m³,17.683333333333334,18.05,True,µg/m³,53.333333333333336,48.0,True,µg/m³,1951.993333333333,1901.03,True,µg/m³,1.5333333333333332,1.52,False,,,
162,Aberdeen,57.15736,-2.094278,GB,True,µg/m³,9.7,9.7,True,µg/m³,10.833333333333334,11.0,True,µg/m³,47.5,47.5,True,µg/m³,28.0,28.0,False,,,,False,,,,False,,,
163,Vialidad,-45.40680023471,-72.696259617805,CL,True,µg/m³,9.0,9.0,False,,,,False,,,,False,,,,False,,,,False,,,,False,,,
164,Independencia,-33.422301,-70.651162,CL,True,µg/m³,9.333333333333334,10.0,True,µg/m³,46.34,46.34,True,µg/m³,19.115000000000002,19.115000000000002,True,µg/m³,45.333333333333336,44.0,True,µg/m³,717.56,717.56,False,,,,False,,,
165,Aston Hill,52.50385,-3.034178,GB,False,,,,False,,,,True,µg/m³,76.0,76.0,False,,,,False,,,,False,,,,False,,,
166,Wrexham,53.04222,-3.002778,GB,True,µg/m³,7.0,7.0,True,µg/m³,6.5,6.5,False,,,,True,µg/m³,11.0,11.0,False,,,,True,µg/m³,2.0,2.0,False,,,
167,La Florida,-33.516630362266,-70.588123961971,CL,True,µg/m³,6.0,6.0,True,µg/m³,39.480000000000004,39.480000000000004,True,µg/m³,25.98,25.98,True,µg/m³,42.166666666666664,42.5,True,µg/m³,59.475,59.475,True,µg/m³,7.385,7.385,False,,,
168,Beverwijk West,52.4893,4.64053,NL,True,µg/m³,-661.1666666666666,-999.0,False,,,,False,,,,True,µg/m³,-659.6666666666666,-999.0,False,,,,False,,,,False,,,
169,Velsen,52.4744,4.57934,NL,True,µg/m³,-999.0,-999.0,False,,,,False,,,,True,µg/m³,-999.0,-999.0,False,,,,False,,,,False,,,
170,North West & Merseyside,53.451826,-2.742134,GB,False,,,,True,µg/m³,23.0,22.0,False,,,,True,µg/m³,21.5,21.5,False,,,,False,,,,False,,,
171,Las Condes,-33.37677352033,-70.523326784061,CL,True,µg/m³,10.333333333333334,11.0,True,µg/m³,30.83,30.83,True,µg/m³,44.685,44.685,True,µg/m³,22.666666666666668,24.0,True,µg/m³,234.685,234.685,False,,,,False,,,
172,Blackpool,53.80489,-3.007175,GB,True,µg/m³,7.5,7.5,True,µg/m³,5.5,5.5,True,µg/m³,59.5,59.5,False,,,,False,,,,False,,,,False,,,
173,Santiago,-33.464142,-70.660797,CL,True,µg/m³,7.5,7.5,True,µg/m³,15.695,15.695,True,µg/m³,36.595,36.595,True,µg/m³,49.0,49.0,True,µg/m³,358.265,358.265,False,,,,False,,,
174,Horst a/d Maas,51.4541,6.1082,NL,True,µg/m³,-999.0,-999.0,False,,,,False,,,,True,µg/m³,-999.0,-999.0,False,,,,False,,,,False,,,
175,Carlisle,54.894834,-2.945307,GB,True,µg/m³,7.5,7.5,True,µg/m³,9.5,9.5,False,,,,True,µg/m³,13.5,13.5,False,,,,False,,,,False,,,
176,Pudahuel,-33.437811379126,-70.750171233135,CL,True,µg/m³,7.5,7.5,False,,,,True,µg/m³,24.71,24.71,True,µg/m³,46.5,46.5,True,µg/m³,498.62,498.62,False,,,,False,,,
177,El Bosque,-33.547099645619,-70.666204101852,CL,True,µg/m³,5.333333333333333,5.0,True,µg/m³,18.89,18.89,True,µg/m³,25.73,25.73,True,µg/m³,38.166666666666664,28.0,True,µg/m³,442.075,442.075,True,µg/m³,0.68,0.68,False,,,
178,Glazebury,53.46008,-2.472056,GB,False,,,,True,µg/m³,3.0,3.0,True,µg/m³,55.0,55.0,False,,,,False,,,,False,,,,False,,,
179,Panchkula,30.7057778,76.8531805555555,IN,True,µg/m³,50.0125,48.29,True,µg/m³,16.182499999999997,15.81,True,µg/m³,33.0,33.5,False,,,,True,µg/m³,455.0,440.0,True,µg/m³,5.795,5.92,False,,,
180,Liverpool,53.34633,-2.844333,GB,True,µg/m³,6.5,6.5,True,µg/m³,6.75,6.5,True,µg/m³,59.75,60.0,False,,,,False,,,,True,µg/m³,2.5,2.5,False,,,
181,秦皇岛市,37.0308,119.5259,CN,True,µg/m³,14.5,17.0,True,µg/m³,43.1,36.0,True,µg/m³,52.8,52.0,True,µg/m³,41.2,42.0,True,µg/m³,660.0,650.0,True,µg/m³,13.9,13.5,False,,,
182,Cerro Navia,-33.433089610143,-70.732147868717,CL,True,µg/m³,9.333333333333334,9.0,True,µg/m³,22.745,22.745,True,µg/m³,27.869999999999997,27.869999999999997,True,µg/m³,31.833333333333332,29.0,True,µg/m³,666.56,666.56,False,,,,False,,,
183,Manchester,53.48152,-2.237881,GB,True,µg/m³,7.75,8.0,True,µg/m³,12.5,11.0,True,µg/m³,50.5,50.5,True,µg/m³,12.0,12.0,False,,,,True,µg/m³,4.5,4.5,False,,,
184,Puente Alto,-33.591390623022,-70.594788,CL,True,µg/m³,0.0,0.0,False,,,,False,,,,True,µg/m³,39.0,39.0,False,,,,False,,,,False,,,
185,Preston,53.76559,-2.680353,GB,True,µg/m³,8.0,8.0,True,µg/m³,9.0,9.0,True,µg/m³,56.5,56.5,False,,,,False,,,,False,,,,False,,,
186,Talagante,-33.673752071375,-70.953064737434,CL,True,µg/m³,8.666666666666666,5.0,False,,,,True,µg/m³,14.605,14.605,True,µg/m³,19.0,19.0,False,,,,False,,,,False,,,
187,Quilicura,-33.349626928347,-70.723792612552,CL,True,µg/m³,5.666666666666667,6.0,False,,,,False,,,,True,µg/m³,37.666666666666664,41.0,False,,,,False,,,,False,,,
188,Cerrillos,-33.495821530652,-70.704282224178,CL,True,µg/m³,5.0,5.0,False,,,,False,,,,True,µg/m³,27.666666666666668,28.0,False,,,,False,,,,False,,,
189,Warrington,53.38928,-2.615358,GB,True,µg/m³,9.5,9.5,True,µg/m³,14.0,14.0,False,,,,True,µg/m³,16.0,16.0,False,,,,False,,,,False,,,
190,Valdivia,-39.831316104673,-73.22851282209,CL,True,µg/m³,10.5,10.5,False,,,,False,,,,True,µg/m³,10.0,10.0,True,µg/m³,211.58333333333334,128.63,True,µg/m³,2.5233333333333334,2.54,False,,,
191,Enschede,52.2345,6.91949,NL,True,µg/m³,6.525706666666667,6.12456,False,,,,False,,,,False,,,,False,,,,False,,,,False,,,
192,邯郸市,36.5776,114.4965,CN,True,µg/m³,117.375,119.5,True,µg/m³,70.125,68.0,True,µg/m³,67.5,70.5,True,µg/m³,224.0,222.0,True,µg/m³,1575.0,1500.0,True,µg/m³,30.375,28.5,False,,,
193,Widnes,53.365391,-2.73168,GB,False,,,,True,µg/m³,13.5,13.5,False,,,,False,,,,False,,,,False,,,,False,,,
194,Wigan,53.54914,-2.638139,GB,True,µg/m³,7.5,7.5,True,µg/m³,7.0,7.0,True,µg/m³,51.5,51.5,False,,,,False,,,,False,,,,False,,,
195,La Unión,-40.286857441758,-73.076710459412,CL,True,µg/m³,4.4766666666666675,3.49,False,,,,False,,,,False,,,,False,,,,False,,,,False,,,
196,Armagh,54.353728,-6.654558,GB,False,,,,True,µg/m³,14.0,14.0,False,,,,True,µg/m³,12.0,12.0,False,,,,False,,,,False,,,
197,Belfast,54.59965,-5.928833,GB,True,µg/m³,6.0,6.0,True,µg/m³,21.5,18.0,True,µg/m³,56.5,56.5,True,µg/m³,9.5,9.5,False,,,,True,µg/m³,19.5,19.5,False,,,
198,Derry,55.002818,-7.331179,GB,True,µg/m³,7.0,7.0,True,µg/m³,4.0,4.0,True,µg/m³,77.5,77.5,True,µg/m³,9.0,9.0,False,,,,True,µg/m³,6.5,6.5,False,,,
199,保定市,38.8416,115.442,CN,True,µg/m³,16.583333333333332,17.5,True,µg/m³,49.0,48.5,True,µg/m³,68.0,61.5,True,µg/m³,37.333333333333336,39.0,True,µg/m³,475.0,500.0,True,µg/m³,11.583333333333334,9.0,False,,,
200,Lough Navar,54.43951,-7.900328,GB,True,µg/m³,4.0,4.0,False,,,,True,µg/m³,72.0,72.0,True,µg/m³,7.0,7.0,False,,,,False,,,,False,,,
201,Caldas,6.0930777,-75.637764,CO,True,µg/m³,-6658.567733333333,-9999.0,False,,,,False,,,,True,µg/m³,-9999.0,-9999.0,False,,,,False,,,,False,,,
202,De Rijp,52.5636,4.8617,NL,False,,,,False,,,,False,,,,True,µg/m³,-999.0,-999.0,False,,,,False,,,,False,,,
203,Eskdalemuir,55.31531,-3.206111,GB,False,,,,True,µg/m³,4.5,4.5,True,µg/m³,56.5,56.5,False,,,,False,,,,False,,,,False,,,
204,Peebles,55.657472,-3.196527,GB,False,,,,True,µg/m³,10.0,10.0,True,µg/m³,49.0,49.0,False,,,,False,,,,False,,,,False,,,
205,Brighton,50.840836,-0.147572,GB,False,,,,True,µg/m³,3.0,3.0,True,µg/m³,61.0,61.0,False,,,,False,,,,False,,,,False,,,
206,Patna,25.5941,85.1376,IN,True,µg/m³,208.5,208.5,True,µg/m³,7.805000000000001,7.805000000000001,True,µg/m³,45.11,45.11,False,,,,True,µg/m³,1240.0,1240.0,True,µg/m³,29.6,29.6,False,,,
207,Canterbury,51.27399,1.098061,GB,False,,,,True,µg/m³,1.5,1.5,True,µg/m³,69.0,69.0,False,,,,False,,,,False,,,,False,,,
208,Chatham,51.374264,0.54797,GB,True,µg/m³,7.0,7.0,True,µg/m³,4.0,4.0,False,,,,True,µg/m³,18.0,18.0,False,,,,False,,,,False,,,
209,Stockbridge,51.149617,-1.438228,GB,True,µg/m³,5.0,5.0,True,µg/m³,0.0,0.0,True,µg/m³,75.0,75.0,True,µg/m³,9.5,9.5,False,,,,True,µg/m³,5.0,5.0,False,,,
210,Eastbourne,50.805778,0.271611,GB,True,µg/m³,8.0,8.0,True,µg/m³,1.5,1.5,False,,,,False,,,,False,,,,False,,,,False,,,
211,Horley,51.165865,-0.167734,GB,False,,,,True,µg/m³,10.0,10.0,False,,,,False,,,,False,,,,False,,,,False,,,
212,Lullington Heath,50.7937,0.18125,GB,False,,,,True,µg/m³,0.5,0.5,True,µg/m³,76.0,76.0,False,,,,False,,,,True,µg/m³,5.0,5.0,False,,,
213,张家口市,40.7688,114.8792,CN,True,µg/m³,11.5,11.5,True,µg/m³,19.4,18.5,True,µg/m³,72.6,75.0,True,µg/m³,31.7,35.0,True,µg/m³,470.0,500.0,True,µg/m³,15.1,15.5,False,,,
214,Oxford,51.744806,-1.260278,GB,True,µg/m³,5.5,5.5,True,µg/m³,11.0,8.0,False,,,,True,µg/m³,8.5,8.5,False,,,,False,,,,False,,,
215,Portsmouth,50.82881,-1.068583,GB,True,µg/m³,8.525,9.2,True,µg/m³,4.0,4.0,True,µg/m³,62.5,62.5,True,µg/m³,15.0,15.0,False,,,,False,,,,False,,,
216,Reading,51.45309,-0.944067,GB,True,µg/m³,3.175,3.35,True,µg/m³,7.0,7.0,True,µg/m³,65.5,65.5,True,µg/m³,8.5,8.5,False,,,,False,,,,False,,,
217,Rochester,51.45617,0.634889,GB,True,µg/m³,6.75,7.0,True,µg/m³,4.5,4.5,True,µg/m³,68.0,68.0,True,µg/m³,12.0,12.0,False,,,,True,µg/m³,13.0,13.0,False,,,
218,Southampton,50.90814,-1.395778,GB,True,µg/m³,7.0,7.0,True,µg/m³,10.0,9.5,True,µg/m³,65.0,65.0,True,µg/m³,17.75,18.0,False,,,,True,µg/m³,14.0,14.0,False,,,
219,承德市,40.9161,117.8184,CN,True,µg/m³,23.3,23.5,True,µg/m³,34.8,36.0,True,µg/m³,64.4,65.0,True,µg/m³,52.1,46.5,True,µg/m³,680.0,700.0,True,µg/m³,7.6,7.5,False,,,
220,South East,50.832947,-0.379916,GB,True,µg/m³,6.0,6.0,True,µg/m³,2.0,2.0,False,,,,False,,,,False,,,,False,,,,False,,,
221,Cardiff,51.48178,-3.17625,GB,True,µg/m³,7.0,7.0,True,µg/m³,18.0,19.0,True,µg/m³,61.5,61.5,True,µg/m³,14.5,14.5,False,,,,True,µg/m³,1.0,1.0,False,,,
222,Lucknow,26.8458805,80.9365541,IN,True,µg/m³,188.735,205.75,True,µg/m³,47.5335,45.045,True,µg/m³,17.092499999999998,16.7,False,,,,True,µg/m³,1482.0,1255.0,True,µg/m³,9.6615,8.649999999999999,False,,,
223,Chepstow,51.638094,-2.678731,GB,True,µg/m³,8.0,8.0,True,µg/m³,18.0,18.0,False,,,,True,µg/m³,20.0,20.0,False,,,,False,,,,False,,,
224,La Estrella,6.1555305,-75.6441727,CO,True,µg/m³,19.666666666666668,19.0,False,,,,False,,,,False,,,,False,,,,False,,,,False,,,
225,Narberth,51.781784,-4.691462,GB,True,µg/m³,8.0,8.0,True,µg/m³,0.0,0.0,True,µg/m³,74.5,74.5,True,µg/m³,15.0,15.0,False,,,,True,µg/m³,13.0,13.0,False,,,
226,Newport,51.601203,-2.977281,GB,True,µg/m³,7.0,7.0,True,µg/m³,9.0,9.0,False,,,,True,µg/m³,14.0,14.0,False,,,,False,,,,False,,,
227,Port Talbot,51.58395,-3.770822,GB,True,µg/m³,8.0,8.0,True,µg/m³,13.0,13.0,True,µg/m³,66.5,66.5,True,µg/m³,17.0,17.0,False,,,,True,µg/m³,7.5,7.5,False,,,
228,廊坊市,39.5178,116.6838,CN,True,µg/m³,17.875,18.0,True,µg/m³,53.625,52.0,True,µg/m³,67.5,68.0,True,µg/m³,40.5,41.0,True,µg/m³,550.0,550.0,True,µg/m³,6.25,5.5,False,,,
229,Swansea,51.632696,-3.947374,GB,True,µg/m³,9.0,9.0,True,µg/m³,9.0,9.0,False,,,,True,µg/m³,26.5,26.5,False,,,,False,,,,False,,,
230,Barbosa,6.4369602,-75.330452,CO,True,µg/m³,-3329.4925366666666,2.34444,False,,,,False,,,,False,,,,False,,,,False,,,,False,,,
231,Varanasi,25.3505986,82.9083074,IN,True,µg/m³,156.0,154.0,True,µg/m³,70.93666666666667,67.49,True,µg/m³,71.27666666666666,79.77,True,µg/m³,353.0,273.0,True,µg/m³,410.0,330.0,True,µg/m³,20.086666666666666,21.22,False,,,
232,Barnstaple,51.074793,-4.041924,GB,True,µg/m³,5.0,5.0,False,,,,False,,,,True,µg/m³,10.0,10.0,False,,,,False,,,,False,,,
233,Bournemouth,50.73957,-1.826744,GB,True,µg/m³,8.5,8.5,True,µg/m³,0.0,0.0,True,µg/m³,83.5,83.5,False,,,,False,,,,False,,,,False,,,
234,Copacabana,6.3453612,-75.5047531,CO,True,µg/m³,7.532273333333333,7.16299,False,,,,False,,,,False,,,,False,,,,False,,,,False,,,
235,Bristol,51.462839,-2.584482,GB,True,µg/m³,7.0,7.0,True,µg/m³,17.5,17.5,True,µg/m³,54.0,54.0,True,µg/m³,7.0,7.0,False,,,,False,,,,False,,,
236,沧州市,38.2991,116.8584,CN,True,µg/m³,51.5,56.5,True,µg/m³,59.833333333333336,60.5,True,µg/m³,71.33333333333333,74.0,True,µg/m³,95.0,96.0,True,µg/m³,900.0,900.0,True,µg/m³,21.333333333333332,23.0,False,,,
237,Charlton,51.05625,-2.68345,GB,False,,,,True,µg/m³,1.5,1.5,True,µg/m³,78.5,78.5,False,,,,False,,,,False,,,,False,,,
238,South West,50.735454,-1.780888,GB,True,µg/m³,10.5,10.5,True,µg/m³,0.5,0.5,False,,,,False,,,,False,,,,False,,,,False,,,
239,Exeter,50.725083,-3.532465,GB,False,,,,True,µg/m³,24.5,24.5,True,µg/m³,53.0,53.0,False,,,,False,,,,False,,,,False,,,
240,Honiton,50.792287,-3.196702,GB,False,,,,True,µg/m³,0.5,0.5,False,,,,False,,,,False,,,,False,,,,False,,,
241,Plymouth,50.37167,-4.142361,GB,True,µg/m³,7.0,7.0,True,µg/m³,8.0,8.0,True,µg/m³,73.0,73.0,True,µg/m³,19.0,19.0,False,,,,False,,,,False,,,
242,Howrah,22.5687319,88.2797276,IN,True,µg/m³,146.415,146.18,True,µg/m³,62.47099999999999,52.8,True,µg/m³,13.253,16.36,True,µg/m³,208.718,181.83499999999998,True,µg/m³,839.0,530.0,True,µg/m³,46.437000000000005,4.695,False,,,
243,衡水市,37.7379,115.6426,CN,True,µg/m³,65.0,59.0,True,µg/m³,53.0,52.0,True,µg/m³,71.66666666666667,72.0,True,µg/m³,104.66666666666667,95.5,True,µg/m³,1083.3333333333333,1050.0,True,µg/m³,20.333333333333332,20.5,False,,,
244,Saltash,50.411463,-4.227678,GB,True,µg/m³,6.0,6.0,False,,,,False,,,,True,µg/m³,21.5,21.5,False,,,,False,,,,False,,,
245,Yarner Wood,50.5976,-3.71651,GB,False,,,,True,µg/m³,1.0,1.0,True,µg/m³,83.0,83.0,False,,,,False,,,,False,,,,False,,,
246,Mace Head,53.326444,-9.903917,GB,False,,,,False,,,,True,µg/m³,89.5,89.5,False,,,,False,,,,False,,,,False,,,
247,West Midlands,52.47609,-1.875024,GB,True,µg/m³,7.5,7.5,True,µg/m³,21.0,21.0,True,µg/m³,51.5,51.5,True,µg/m³,18.5,18.5,False,,,,False,,,,False,,,
248,Birmingham,52.437165,-1.829999,GB,True,µg/m³,6.0,6.0,True,µg/m³,3.0,3.0,True,µg/m³,67.0,67.0,False,,,,False,,,,False,,,,False,,,
249,Bello,6.3375502,-75.5678024,CO,True,µg/m³,11.136703333333335,9.58406,False,,,,False,,,,False,,,,False,,,,False,,,,False,,,
250,邢台市,37.0533,114.4821,CN,True,µg/m³,70.375,69.0,True,µg/m³,64.25,63.5,True,µg/m³,65.75,67.0,True,µg/m³,166.0,161.5,True,µg/m³,1287.5,1250.0,True,µg/m³,35.75,36.5,False,,,
251,Coventry,52.411563,-1.560228,GB,True,µg/m³,6.0,6.0,True,µg/m³,11.0,11.0,True,µg/m³,62.5,62.5,False,,,,False,,,,False,,,,False,,,
252,Envigado,6.1686831,-75.5819702,CO,True,µg/m³,25.2085,24.3777,False,,,,False,,,,False,,,,False,,,,False,,,,False,,,
253,Leamington Spa,52.28881,-1.533119,GB,True,µg/m³,6.75,7.0,True,µg/m³,5.75,5.5,True,µg/m³,54.5,54.5,True,µg/m³,13.5,13.5,False,,,,False,,,,False,,,
254,Sabaneta,6.1454778,-75.6214142,CO,True,µg/m³,14.414563333333334,15.5823,False,,,,False,,,,False,,,,False,,,,False,,,,False,,,
255,Leominster,52.22174,-2.736665,GB,False,,,,True,µg/m³,2.0,2.0,True,µg/m³,68.0,68.0,False,,,,False,,,,False,,,,False,,,
256,Stoke-on-Trent,53.02821,-2.175133,GB,True,µg/m³,8.0,8.0,True,µg/m³,12.0,9.0,True,µg/m³,59.0,59.0,True,µg/m³,25.5,25.5,False,,,,False,,,,False,,,
257,Willenhall,52.605621,-2.030523,GB,False,,,,True,µg/m³,11.5,11.5,True,µg/m³,62.5,62.5,False,,,,False,,,,False,,,,False,,,
258,太原市,37.7124,112.434,CN,True,µg/m³,52.5,49.0,True,µg/m³,60.888888888888886,62.5,True,µg/m³,67.44444444444444,66.0,True,µg/m³,124.11111111111111,126.0,True,µg/m³,866.6666666666666,800.0,True,µg/m³,26.444444444444443,22.0,False,,,
259,Barnsley,53.56292,-1.510436,GB,False,,,,True,µg/m³,11.0,11.0,True,µg/m³,47.0,47.0,False,,,,False,,,,True,µg/m³,1.0,1.0,False,,,
260,Bradford,53.771245,-1.759774,GB,False,,,,True,µg/m³,15.5,15.5,False,,,,False,,,,False,,,,False,,,,False,,,
261,Doncaster,53.518868,-1.138073,GB,False,,,,True,µg/m³,11.5,11.5,False,,,,False,,,,False,,,,False,,,,False,,,
262,High Muffles,54.334944,-0.80855,GB,False,,,,True,µg/m³,5.0,5.0,True,µg/m³,58.5,58.5,False,,,,False,,,,False,,,,False,,,
263,Hull,53.74878,-0.341222,GB,True,µg/m³,9.0,9.0,True,µg/m³,10.0,10.0,True,µg/m³,51.0,51.0,False,,,,False,,,,True,µg/m³,9.5,9.5,False,,,
264,Yorkshire,53.758971,-0.305749,GB,False,,,,True,µg/m³,8.5,8.5,False,,,,True,µg/m³,20.0,20.0,False,,,,False,,,,False,,,
265,Leeds,53.80378,-1.546472,GB,True,µg/m³,13.75,14.0,True,µg/m³,31.25,31.0,True,µg/m³,28.0,28.0,True,µg/m³,22.25,22.5,False,,,,True,µg/m³,2.5,2.5,False,,,
266,Scunthorpe,53.58634,-0.636811,GB,False,,,,True,µg/m³,11.0,11.0,False,,,,True,µg/m³,18.5,18.5,False,,,,True,µg/m³,2.0,2.0,False,,,
267,Yorkshire & Humberside,53.40495,-1.455815,GB,True,µg/m³,18.0,18.0,True,µg/m³,31.0,31.0,False,,,,False,,,,False,,,,False,,,,False,,,
268,Sheffield,53.378622,-1.478096,GB,False,,,,True,µg/m³,17.666666666666668,17.0,True,µg/m³,44.5,44.5,True,µg/m³,18.5,18.5,False,,,,False,,,,False,,,
269,York,53.967513,-1.086514,GB,True,µg/m³,16.0,16.0,True,µg/m³,10.5,11.0,False,,,,True,µg/m³,23.75,24.0,False,,,,False,,,,False,,,
270,呼和浩特市,40.7579,111.551,CN,True,µg/m³,38.75,32.5,True,µg/m³,65.125,65.0,True,µg/m³,65.0625,72.0,True,µg/m³,89.375,70.0,True,µg/m³,1781.25,1650.0,True,µg/m³,23.8125,23.0,False,,,
271,沈阳市,41.7089,123.2444,CN,True,µg/m³,19.045454545454547,14.5,True,µg/m³,41.90909090909091,44.0,True,µg/m³,50.27272727272727,54.0,True,µg/m³,44.54545454545455,38.0,True,µg/m³,559.0909090909091,500.0,True,µg/m³,19.681818181818183,19.5,False,,,
272,大连市,38.808055556,121.25888889,CN,True,µg/m³,21.4,20.0,True,µg/m³,36.15,38.0,True,µg/m³,50.8,49.0,True,µg/m³,43.45,44.0,True,µg/m³,835.0,650.0,True,µg/m³,18.45,17.0,False,,,
273,长春市,43.55,125.217,CN,True,µg/m³,15.05,15.0,True,µg/m³,27.55,31.0,True,µg/m³,50.8,48.0,True,µg/m³,35.75,32.0,True,µg/m³,555.0,550.0,True,µg/m³,16.3,12.0,False,,,
274,哈尔滨市,45.7222,126.561,CN,True,µg/m³,31.391304347826086,34.0,True,µg/m³,18.652173913043477,20.0,True,µg/m³,36.47826086956522,37.0,True,µg/m³,36.666666666666664,37.5,True,µg/m³,600.0,600.0,True,µg/m³,11.826086956521738,11.0,False,,,
275,上海市,31.1907,121.4,CN,True,µg/m³,56.2,59.0,True,µg/m³,55.9,58.5,True,µg/m³,91.3,93.5,True,µg/m³,80.0,80.0,True,µg/m³,805.0,650.0,True,µg/m³,6.4,6.0,False,,,
276,Kanpur,26.4703136,80.3229863,IN,True,µg/m³,0.0,0.0,True,µg/m³,85.17999999999999,85.8,True,µg/m³,40.720000000000006,39.7,False,,,,True,µg/m³,3884.0,3850.0,True,µg/m³,8.620000000000001,8.9,False,,,
277,南京市,32.0092,118.803,CN,True,µg/m³,58.625,58.5,True,µg/m³,61.5625,61.5,True,µg/m³,98.75,100.0,True,µg/m³,80.85714285714286,79.5,True,µg/m³,837.5,850.0,True,µg/m³,8.125,8.0,False,,,
278,苏州市,31.2472,120.543,CN,True,µg/m³,85.5625,87.0,True,µg/m³,65.5625,65.5,True,µg/m³,85.0,85.5,True,µg/m³,98.0,100.0,True,µg/m³,818.75,800.0,True,µg/m³,5.375,6.0,False,,,
279,南通市,32.0005,120.86,CN,True,µg/m³,87.4,84.5,True,µg/m³,63.6,62.0,True,µg/m³,95.0,93.0,True,µg/m³,113.2,105.0,True,µg/m³,950.0,900.0,True,µg/m³,16.2,15.0,False,,,
280,连云港市,34.5911,119.1478,CN,True,µg/m³,69.0,71.0,True,µg/m³,57.625,57.5,True,µg/m³,87.75,92.0,True,µg/m³,101.5,100.0,True,µg/m³,1250.0,950.0,True,µg/m³,13.375,12.5,False,,,
281,徐州市,34.1781,117.167,CN,True,µg/m³,64.0,66.0,True,µg/m³,60.214285714285715,60.5,True,µg/m³,88.85714285714286,85.0,True,µg/m³,91.42857142857143,94.0,True,µg/m³,1028.5714285714287,1050.0,True,µg/m³,14.428571428571429,14.0,False,,,
282,扬州市,32.3761,119.389,CN,True,µg/m³,108.875,107.0,True,µg/m³,76.625,75.0,True,µg/m³,91.25,91.0,True,µg/m³,119.66666666666667,120.5,True,µg/m³,1450.0,1500.0,True,µg/m³,9.625,9.0,False,,,
283,无锡市,31.4867,120.354,CN,True,µg/m³,78.3125,81.0,True,µg/m³,68.5625,66.0,True,µg/m³,85.0,83.5,True,µg/m³,114.25,114.5,True,µg/m³,1200.0,1200.0,True,µg/m³,12.125,12.0,False,,,
284,常州市,31.7039,119.8914,CN,True,µg/m³,120.16666666666667,120.0,True,µg/m³,77.33333333333333,78.0,True,µg/m³,100.66666666666667,99.5,True,µg/m³,156.58333333333334,153.0,True,µg/m³,1208.3333333333333,1200.0,True,µg/m³,14.0,14.5,False,,,
285,镇江市,32.1883,119.68,CN,True,µg/m³,110.375,114.5,True,µg/m³,74.625,74.5,True,µg/m³,99.0,98.0,True,µg/m³,113.33333333333333,110.0,True,µg/m³,1237.5,1250.0,True,µg/m³,13.125,13.5,False,,,
286,泰州市,32.3292,119.8767,CN,True,µg/m³,100.375,102.0,True,µg/m³,56.75,56.0,True,µg/m³,98.75,98.0,True,µg/m³,120.875,123.0,True,µg/m³,1337.5,1350.0,True,µg/m³,8.625,8.5,False,,,
287,淮安市,33.5039,118.989,CN,True,µg/m³,90.875,84.5,True,µg/m³,55.625,59.0,True,µg/m³,100.25,103.0,True,µg/m³,123.875,122.0,True,µg/m³,1387.5,1300.0,True,µg/m³,9.125,8.5,False,,,
288,盐城市,33.3681,120.118,CN,True,µg/m³,86.625,87.5,True,µg/m³,63.25,64.0,True,µg/m³,111.25,112.0,True,µg/m³,114.25,119.5,True,µg/m³,1187.5,1000.0,True,µg/m³,9.75,8.5,False,,,
289,Chennai,13.164544,80.26285,IN,True,µg/m³,-98.05842105263157,66.49,True,µg/m³,21.192500000000003,21.240000000000002,True,µg/m³,11.355555555555558,14.81,False,,,,True,µg/m³,983.75,1115.0,True,µg/m³,11.87875,3.315,False,,,
290,宿迁市,33.9506,118.283,CN,True,µg/m³,66.5,63.5,True,µg/m³,59.125,59.5,True,µg/m³,95.25,95.0,True,µg/m³,95.33333333333333,91.0,True,µg/m³,1237.5,1200.0,True,µg/m³,6.875,6.5,False,,,
291,杭州市,29.635,119.026,CN,True,µg/m³,37.23809523809524,38.0,True,µg/m³,41.95238095238095,47.0,True,µg/m³,81.76190476190476,83.0,True,µg/m³,72.80952380952381,70.0,True,µg/m³,1000.0,1000.0,True,µg/m³,8.571428571428571,8.0,False,,,
292,宁波市,29.7736,121.524,CN,True,µg/m³,59.875,61.5,True,µg/m³,48.625,51.0,True,µg/m³,108.25,109.0,True,µg/m³,86.625,86.5,True,µg/m³,1062.5,1000.0,True,µg/m³,15.3125,14.5,False,,,
293,温州市,27.9747,120.634,CN,True,µg/m³,30.75,32.0,True,µg/m³,25.25,26.0,True,µg/m³,79.75,82.0,True,µg/m³,55.875,56.0,True,µg/m³,700.0,750.0,True,µg/m³,10.25,10.5,False,,,
294,绍兴市,29.9919,120.598,CN,True,µg/m³,55.5,54.0,True,µg/m³,40.0,36.5,True,µg/m³,94.0,93.0,True,µg/m³,92.33333333333333,95.5,True,µg/m³,883.3333333333334,900.0,True,µg/m³,10.166666666666666,9.0,False,,,
295,湖州市,30.8244,120.07,CN,True,µg/m³,55.333333333333336,48.0,True,µg/m³,57.666666666666664,55.5,True,µg/m³,110.33333333333333,106.0,True,µg/m³,73.33333333333333,74.0,True,µg/m³,1175.0,1200.0,True,µg/m³,14.5,14.0,False,,,
296,嘉兴市,30.7478,120.726,CN,True,µg/m³,50.333333333333336,50.0,True,µg/m³,53.333333333333336,53.0,True,µg/m³,88.66666666666667,88.0,True,µg/m³,92.33333333333333,95.5,True,µg/m³,1150.0,1050.0,True,µg/m³,8.0,8.5,False,,,
297,台州市,28.5773,121.273,CN,True,µg/m³,34.166666666666664,35.5,True,µg/m³,42.166666666666664,43.5,True,µg/m³,106.33333333333333,109.0,True,µg/m³,59.333333333333336,59.0,True,µg/m³,783.3333333333334,800.0,True,µg/m³,7.833333333333333,8.0,False,,,
298,舟山市,29.9558,122.122,CN,True,µg/m³,24.333333333333332,25.5,True,µg/m³,32.666666666666664,34.0,True,µg/m³,96.66666666666667,95.0,True,µg/m³,38.5,33.5,True,µg/m³,683.3333333333334,650.0,True,µg/m³,3.6666666666666665,3.5,False,,,
299,金华市,29.077,119.647,CN,True,µg/m³,53.0,52.0,True,µg/m³,54.5,55.0,True,µg/m³,111.0,108.0,True,µg/m³,59.25,57.5,True,µg/m³,733.3333333333334,700.0,True,µg/m³,14.333333333333334,14.5,False,,,
300,衢州市,28.9404,118.871,CN,True,µg/m³,32.333333333333336,32.5,True,µg/m³,39.166666666666664,39.5,True,µg/m³,93.66666666666667,92.0,True,µg/m³,50.833333333333336,52.5,True,µg/m³,766.6666666666666,800.0,True,µg/m³,7.0,6.5,False,,,
301,丽水市,28.4231,119.879,CN,True,µg/m³,31.666666666666668,32.0,True,µg/m³,35.5,35.0,True,µg/m³,95.0,96.0,True,µg/m³,44.0,44.5,True,µg/m³,700.0,700.0,True,µg/m³,6.5,6.5,False,,,
302,合肥市,31.7848,117.124,CN,True,µg/m³,47.75,47.0,True,µg/m³,63.65,66.5,True,µg/m³,88.7,87.0,True,µg/m³,71.47368421052632,70.0,True,µg/m³,975.0,900.0,True,µg/m³,10.35,9.0,False,,,
303,福州市,26.0392,119.268,CN,True,µg/m³,23.833333333333332,24.5,True,µg/m³,22.583333333333332,22.0,True,µg/m³,48.166666666666664,44.5,True,µg/m³,33.166666666666664,33.0,True,µg/m³,1225.0,1150.0,True,µg/m³,6.083333333333333,6.0,False,,,
304,厦门市,24.445833333,118.06361111,CN,True,µg/m³,16.875,18.0,True,µg/m³,28.375,25.5,True,µg/m³,71.5,68.0,True,µg/m³,28.0,24.5,True,µg/m³,700.0,750.0,True,µg/m³,3.25,3.0,False,,,
305,南昌市,28.6844,115.742,CN,True,µg/m³,20.88888888888889,23.0,True,µg/m³,44.94444444444444,49.5,True,µg/m³,78.88888888888889,74.0,True,µg/m³,44.23529411764706,44.0,True,µg/m³,783.3333333333334,850.0,True,µg/m³,7.833333333333333,8.5,False,,,
306,济南市,36.5336,116.734,CN,True,µg/m³,105.71428571428571,101.0,True,µg/m³,58.214285714285715,59.5,True,µg/m³,89.0,92.0,True,µg/m³,171.42857142857142,177.0,True,µg/m³,2421.4285714285716,2500.0,True,µg/m³,16.857142857142858,17.0,False,,,
307,青岛市,36.2403,120.1964,CN,True,µg/m³,84.38888888888889,89.5,True,µg/m³,58.05555555555556,62.0,True,µg/m³,71.0,76.0,True,µg/m³,142.83333333333334,154.5,True,µg/m³,1272.2222222222222,1300.0,True,µg/m³,14.277777777777779,14.0,False,,,
308,郑州市,34.7187,113.6113,CN,True,µg/m³,66.72222222222223,67.0,True,µg/m³,52.5,54.0,True,µg/m³,70.44444444444444,67.0,True,µg/m³,64.57142857142857,66.0,True,µg/m³,1005.5555555555555,1050.0,True,µg/m³,11.11111111111111,12.5,False,,,
309,武汉市,30.2997,113.8531,CN,True,µg/m³,35.0,34.0,True,µg/m³,52.166666666666664,55.5,True,µg/m³,72.88888888888889,66.0,True,µg/m³,45.875,43.5,True,µg/m³,1044.4444444444443,1000.0,True,µg/m³,11.666666666666666,11.0,False,,,
310,Chandrapur,19.9775302,79.2337086,IN,True,µg/m³,51.09428571428571,29.32,True,µg/m³,6.578571428571428,5.17,True,µg/m³,13.108571428571429,12.0,True,µg/m³,190.77666666666664,254.0,True,µg/m³,521.4285714285714,550.0,True,µg/m³,6.722857142857142,6.25,False,,,
311,长沙市,28.1178,112.8872,CN,True,µg/m³,31.55,32.5,True,µg/m³,46.2,46.0,True,µg/m³,61.1,61.0,True,µg/m³,36.0,37.5,True,µg/m³,925.0,900.0,True,µg/m³,7.25,8.0,False,,,
312,广州市,23.105,113.215,CN,True,µg/m³,47.77272727272727,46.5,True,µg/m³,67.54545454545455,73.5,True,µg/m³,115.45454545454545,112.0,True,µg/m³,70.77272727272727,64.0,True,µg/m³,900.0,900.0,True,µg/m³,13.818181818181818,11.5,False,,,
313,深圳市,22.5171,113.891,CN,True,µg/m³,32.86363636363637,30.5,True,µg/m³,16.0,12.5,True,µg/m³,122.27272727272727,124.0,True,µg/m³,49.0,47.0,True,µg/m³,631.8181818181819,600.0,True,µg/m³,5.7272727272727275,6.0,False,,,
314,珠海市,22.2281,113.299,CN,True,µg/m³,21.875,22.5,True,µg/m³,16.0,16.5,True,µg/m³,165.25,170.5,True,µg/m³,34.625,35.5,True,µg/m³,550.0,550.0,True,µg/m³,2.75,2.5,False,,,
315,佛山市,22.7629,112.844,CN,True,µg/m³,65.75,65.5,True,µg/m³,89.0625,90.5,True,µg/m³,172.125,173.0,True,µg/m³,124.875,124.0,True,µg/m³,1118.75,1200.0,True,µg/m³,26.875,23.0,False,,,
316,中山市,22.4853,113.3769,CN,True,µg/m³,29.625,28.5,True,µg/m³,30.5,28.5,True,µg/m³,208.5,204.5,True,µg/m³,40.25,41.0,True,µg/m³,562.5,650.0,True,µg/m³,7.625,8.0,False,,,
317,江门市,22.5328,113.024,CN,True,µg/m³,73.75,72.0,True,µg/m³,92.125,93.5,True,µg/m³,121.0,121.0,True,µg/m³,133.125,141.0,True,µg/m³,1487.5,1450.0,True,µg/m³,14.625,14.5,False,,,
318,东莞市,22.96583333,113.7383333,CN,True,µg/m³,70.8,66.5,True,µg/m³,65.66666666666667,67.0,True,µg/m³,100.6,113.0,True,µg/m³,86.4,79.5,True,µg/m³,1140.0,1150.0,True,µg/m³,30.0,30.0,False,,,
319,惠州市,22.7422,114.3244,CN,True,µg/m³,42.5,43.5,True,µg/m³,37.0,44.5,True,µg/m³,124.5,122.5,True,µg/m³,62.375,63.0,True,µg/m³,862.5,850.0,True,µg/m³,12.0,11.5,False,,,
320,肇庆市,23.0528,112.427,CN,True,µg/m³,58.375,57.0,True,µg/m³,58.875,54.0,True,µg/m³,134.25,128.0,True,µg/m³,77.5,78.5,True,µg/m³,925.0,900.0,True,µg/m³,20.125,21.0,False,,,
321,南宁市,22.735,108.239,CN,True,µg/m³,47.9375,45.0,True,µg/m³,55.375,54.0,True,µg/m³,74.0,74.5,True,µg/m³,72.64285714285714,67.5,True,µg/m³,1206.25,1150.0,True,µg/m³,13.125,10.0,False,,,
322,海口市,19.9507,110.283,CN,True,µg/m³,13.5,14.0,True,µg/m³,10.8,10.5,True,µg/m³,130.2,135.0,True,µg/m³,26.9,26.5,True,µg/m³,610.0,600.0,True,µg/m³,3.7,3.5,False,,,
323,重庆市,29.4892,106.296,CN,True,µg/m³,40.65625,43.0,True,µg/m³,34.84375,35.5,True,µg/m³,26.9375,23.0,True,µg/m³,57.45161290322581,58.0,True,µg/m³,690.625,600.0,True,µg/m³,6.25,6.0,False,,,
324,成都市,30.5589,103.613,CN,True,µg/m³,66.5,72.5,True,µg/m³,45.125,47.0,True,µg/m³,41.6875,42.0,True,µg/m³,91.9375,100.0,True,µg/m³,768.75,800.0,True,µg/m³,6.5625,7.0,False,,,
325,贵阳市,26.4364,106.6243,CN,True,µg/m³,16.9,16.0,True,µg/m³,17.5,14.5,True,µg/m³,69.9,71.0,True,µg/m³,28.666666666666668,28.5,True,µg/m³,365.0,400.0,True,µg/m³,7.65,6.5,False,,,
326,昆明市,24.8885,102.638,CN,True,µg/m³,19.214285714285715,18.0,True,µg/m³,42.142857142857146,46.5,True,µg/m³,72.0,71.0,True,µg/m³,44.5,44.0,True,µg/m³,1135.7142857142858,1050.0,True,µg/m³,13.357142857142858,13.5,False,,,
327,拉萨市,29.6292,90.9798,CN,True,µg/m³,14.583333333333334,16.0,True,µg/m³,38.75,46.0,True,µg/m³,84.0,81.5,True,µg/m³,38.333333333333336,34.5,True,µg/m³,625.0,600.0,True,µg/m³,5.416666666666667,6.0,False,,,
328, Alwar,27.554793,76.611536,IN,True,µg/m³,36.416250000000005,35.43000000000001,True,µg/m³,65.68625,64.86,True,µg/m³,16.668750000000003,16.27,True,µg/m³,83.58375,81.11,True,µg/m³,892.5,940.0,True,µg/m³,12.333749999999998,11.805,False,,,
329,Agra,27.19865833,78.00598056,IN,True,µg/m³,167.0,156.0,True,µg/m³,61.616666666666674,59.75,True,µg/m³,21.683333333333334,20.85,False,,,,True,µg/m³,783.3333333333334,775.0,True,µg/m³,22.28333333333333,23.2,False,,,
330,Kolkata,22.5448082,88.3403691,IN,True,µg/m³,204.61249999999998,201.8,True,µg/m³,67.31,67.155,True,µg/m³,10.7075,10.515,True,µg/m³,226.125,217.85000000000002,True,µg/m³,1060.0,1070.0,True,µg/m³,1.7275,1.72,False,,,
331,Bhiwadi,28.194909,76.862296,IN,True,µg/m³,209.18333333333337,209.05,True,µg/m³,35.45666666666667,35.254999999999995,True,µg/m³,6.614999999999999,4.675000000000001,True,µg/m³,397.90000000000003,394.95,True,µg/m³,1186.6666666666667,1185.0,True,µg/m³,13.451666666666668,13.39,False,,,
332,西安市,34.1978,108.869,CN,True,µg/m³,90.6923076923077,91.0,True,µg/m³,64.73076923076923,64.0,True,µg/m³,64.38461538461539,63.0,True,µg/m³,140.08333333333334,139.0,True,µg/m³,1376.923076923077,1350.0,True,µg/m³,12.192307692307692,12.0,False,,,
333,兰州市,35.94,103.631,CN,True,µg/m³,23.4,24.0,True,µg/m³,22.6,20.0,True,µg/m³,116.0,108.0,True,µg/m³,54.8,51.5,True,µg/m³,430.0,400.0,True,µg/m³,9.9,10.0,False,,,
334,西宁市,36.6428,101.524,CN,True,µg/m³,24.375,24.5,True,µg/m³,35.625,32.5,True,µg/m³,84.5,83.0,True,µg/m³,48.0,47.5,True,µg/m³,1062.5,1050.0,True,µg/m³,10.125,10.0,False,,,
335,银川市,38.44139,105.9512,CN,True,µg/m³,54.833333333333336,54.5,True,µg/m³,63.833333333333336,66.0,True,µg/m³,84.66666666666667,83.5,True,µg/m³,119.33333333333333,120.5,True,µg/m³,1841.6666666666667,1800.0,True,µg/m³,52.5,50.0,False,,,
336,乌鲁木齐市,43.4569,87.4651,CN,True,µg/m³,26.785714285714285,30.0,True,µg/m³,35.0,29.0,True,µg/m³,64.0,63.0,True,µg/m³,29.4,30.0,True,µg/m³,971.4285714285714,900.0,True,µg/m³,6.071428571428571,7.0,False,,,
337,湘潭市,27.8159,112.4876,CN,True,µg/m³,36.07142857142857,39.0,True,µg/m³,47.42857142857143,50.0,True,µg/m³,51.0,50.0,True,µg/m³,43.81818181818182,45.0,True,µg/m³,864.2857142857143,800.0,True,µg/m³,9.571428571428571,10.0,False,,,
338,株洲市,27.8244,113.095,CN,True,µg/m³,35.92857142857143,35.5,True,µg/m³,40.714285714285715,44.0,True,µg/m³,81.14285714285714,64.0,True,µg/m³,46.785714285714285,46.0,True,µg/m³,785.7142857142857,800.0,True,µg/m³,11.357142857142858,12.0,False,,,
339,包头市,40.5546,109.8104,CN,True,µg/m³,55.416666666666664,51.0,True,µg/m³,61.916666666666664,61.5,True,µg/m³,72.66666666666667,72.0,True,µg/m³,94.08333333333333,90.0,True,µg/m³,1750.0,1750.0,True,µg/m³,39.0,35.0,False,,,
340,Ajmer,26.470859,74.646594,IN,True,µg/m³,42.025000000000006,47.81,True,µg/m³,49.23833333333334,49.55,True,µg/m³,8.665,8.704999999999998,True,µg/m³,103.86666666666667,103.15,True,µg/m³,576.6666666666666,640.0,True,µg/m³,10.821666666666667,10.4,False,,,
341,鄂尔多斯市,39.5986,109.7736,CN,True,µg/m³,28.3,27.0,True,µg/m³,47.7,47.0,True,µg/m³,89.8,90.0,True,µg/m³,80.2,75.5,True,µg/m³,870.0,900.0,True,µg/m³,12.8,12.5,False,,,
342,营口市,40.6511,122.1658,CN,True,µg/m³,24.375,23.5,True,µg/m³,41.0,40.5,True,µg/m³,76.0,71.5,True,µg/m³,51.375,50.0,True,µg/m³,587.5,600.0,True,µg/m³,7.125,6.0,False,,,
343,丹东市,40.0625,124.3303,CN,True,µg/m³,37.875,37.5,True,µg/m³,29.5,28.5,True,µg/m³,59.25,61.0,True,µg/m³,60.25,60.0,True,µg/m³,987.5,800.0,True,µg/m³,26.75,28.5,False,,,
344,盘锦市,41.0903,121.835,CN,True,µg/m³,25.833333333333332,21.5,True,µg/m³,42.166666666666664,42.5,True,µg/m³,69.66666666666667,71.0,True,µg/m³,39.333333333333336,36.5,True,µg/m³,616.6666666666666,550.0,True,µg/m³,17.0,15.5,False,,,
345,葫芦岛市,40.715,120.8392,CN,True,µg/m³,33.25,20.0,True,µg/m³,47.25,46.0,True,µg/m³,53.25,53.0,True,µg/m³,55.714285714285715,41.0,True,µg/m³,937.5,900.0,True,µg/m³,31.375,26.0,False,,,
346,泉州市,24.8978,118.5819,CN,True,µg/m³,17.0,17.5,True,µg/m³,18.5,14.0,True,µg/m³,64.75,64.5,True,µg/m³,26.375,24.5,True,µg/m³,650.0,650.0,True,µg/m³,6.0,6.0,False,,,
347,莱芜市,36.2092,117.6789,CN,True,µg/m³,104.33333333333333,103.0,True,µg/m³,47.5,50.0,True,µg/m³,92.0,92.0,True,µg/m³,161.83333333333334,161.5,True,µg/m³,2033.3333333333333,2150.0,True,µg/m³,13.0,12.0,False,,,
348,临沂市,34.9817,118.2764,CN,True,µg/m³,87.0,86.0,True,µg/m³,58.625,58.0,True,µg/m³,68.5,67.0,True,µg/m³,148.0,149.0,True,µg/m³,1612.5,1600.0,True,µg/m³,12.0,12.0,False,,,
349,Kota,25.14389,75.821256,IN,True,µg/m³,71.91428571428571,72.5,True,µg/m³,18.115714285714283,17.38,True,µg/m³,18.10571428571429,18.76,True,µg/m³,115.8,117.5,True,µg/m³,1012.8571428571429,1030.0,True,µg/m³,7.835714285714286,8.07,False,,,
350,德州市,37.4372,116.2714,CN,True,µg/m³,68.0,67.0,True,µg/m³,67.83333333333333,68.0,True,µg/m³,85.0,87.0,True,µg/m³,126.66666666666667,124.0,True,µg/m³,800.0,800.0,True,µg/m³,23.333333333333332,23.5,False,,,
351,聊城市,36.4372,115.9835,CN,True,µg/m³,99.25,97.5,True,µg/m³,73.0,74.0,True,µg/m³,77.0,77.0,True,µg/m³,173.25,173.0,True,µg/m³,2550.0,2550.0,True,µg/m³,22.25,23.5,False,,,
352,滨州市,37.3617,117.9776,CN,True,µg/m³,55.5,53.0,True,µg/m³,67.16666666666667,64.5,True,µg/m³,67.0,68.0,True,µg/m³,89.5,85.0,True,µg/m³,1383.3333333333333,1350.0,True,µg/m³,30.0,25.0,False,,,
353,淄博市,36.6377,117.8512,CN,True,µg/m³,119.0909090909091,116.0,True,µg/m³,52.54545454545455,53.0,True,µg/m³,86.9090909090909,90.0,True,µg/m³,189.63636363636363,190.0,True,µg/m³,2918.181818181818,2400.0,True,µg/m³,22.818181818181817,19.0,False,,,
354,Pali,25.771061,73.340227,IN,True,µg/m³,63.73833333333332,65.1,True,µg/m³,48.03333333333333,47.59,True,µg/m³,22.226666666666663,20.465,True,µg/m³,100.13,97.99,True,µg/m³,766.6666666666666,770.0,True,µg/m³,3.9133333333333327,4.220000000000001,False,,,
355,Udaipur,24.5886166,73.6321397,IN,True,µg/m³,47.142857142857146,47.1,True,µg/m³,9.484285714285715,9.93,True,µg/m³,16.930000000000003,15.36,True,µg/m³,104.04285714285713,101.2,True,µg/m³,427.14285714285717,410.0,True,µg/m³,7.297142857142857,6.78,False,,,
356,Jaipur,26.9502929,75.730943,IN,True,µg/m³,53.77818181818182,54.23,True,µg/m³,50.18363636363636,47.04,True,µg/m³,9.805454545454547,8.76,True,µg/m³,135.07,137.2,True,µg/m³,2209.090909090909,2130.0,True,µg/m³,12.06090909090909,8.87,False,,,
357,枣庄市,34.5667,117.2852,CN,True,µg/m³,65.625,64.5,True,µg/m³,51.875,50.0,True,µg/m³,84.25,88.5,True,µg/m³,100.625,105.5,True,µg/m³,1000.0,900.0,True,µg/m³,27.5,11.0,False,,,
358,烟台市,37.4014,121.2514,CN,True,µg/m³,47.583333333333336,50.0,True,µg/m³,53.75,55.0,True,µg/m³,93.83333333333333,95.0,True,µg/m³,106.08333333333333,109.5,True,µg/m³,1175.0,1050.0,True,µg/m³,11.5,8.0,False,,,
359,潍坊市,36.7008,119.0586,CN,True,µg/m³,120.88888888888889,111.0,True,µg/m³,62.44444444444444,63.0,True,µg/m³,94.33333333333333,99.0,True,µg/m³,198.66666666666666,189.0,True,µg/m³,2033.3333333333333,1900.0,True,µg/m³,19.77777777777778,20.0,False,,,
360,济宁市,35.4039,116.5546,CN,True,µg/m³,44.333333333333336,43.5,True,µg/m³,50.333333333333336,49.0,True,µg/m³,103.0,90.0,True,µg/m³,84.5,87.5,True,µg/m³,1066.6666666666667,1050.0,True,µg/m³,12.166666666666666,12.0,False,,,
361,泰安市,36.1942,117.0881,CN,True,µg/m³,79.66666666666667,82.0,True,µg/m³,38.833333333333336,38.0,True,µg/m³,79.0,78.0,True,µg/m³,118.33333333333333,122.5,True,µg/m³,1416.6666666666667,1300.0,True,µg/m³,10.0,9.5,False,,,
362,日照市,35.3962,119.4641,CN,True,µg/m³,78.0,76.5,True,µg/m³,46.0,46.0,True,µg/m³,83.0,85.0,True,µg/m³,122.5,122.5,True,µg/m³,1000.0,950.0,True,µg/m³,11.833333333333334,12.5,False,,,
363,威海市,37.4294,122.1067,CN,True,µg/m³,62.6,67.0,True,µg/m³,44.4,50.0,True,µg/m³,97.6,98.0,True,µg/m³,96.6,100.0,True,µg/m³,900.0,900.0,True,µg/m³,10.2,10.0,False,,,
364,东营市,37.4314,118.5019,CN,True,µg/m³,49.75,50.5,True,µg/m³,78.5,78.0,True,µg/m³,74.5,74.5,True,µg/m³,93.375,90.5,True,µg/m³,912.5,900.0,True,µg/m³,23.625,22.5,False,,,
365,Moradabad,28.825341,78.7213009,IN,True,µg/m³,185.71428571428572,184.0,True,µg/m³,54.0,56.2,True,µg/m³,4.028571428571428,3.7,True,µg/m³,171.57142857142858,169.0,True,µg/m³,1814.2857142857142,1880.0,True,µg/m³,7.514285714285714,6.7,False,,,
366,韶关市,24.68636111,113.5593889,CN,True,µg/m³,34.5,32.5,True,µg/m³,39.2,41.0,True,µg/m³,105.4,105.0,True,µg/m³,54.9,48.0,True,µg/m³,880.0,900.0,True,µg/m³,13.4,12.0,False,,,
367,Singrauli,24.10897,82.64558,IN,True,µg/m³,177.28571428571428,169.0,True,µg/m³,29.042857142857144,28.2,True,µg/m³,8.971428571428572,9.2,True,µg/m³,314.7142857142857,320.0,True,µg/m³,1200.0,1160.0,True,µg/m³,14.957142857142859,14.9,False,,,
368,汕头市,23.2536,116.4019,CN,True,µg/m³,16.25,16.5,True,µg/m³,16.833333333333332,16.5,True,µg/m³,111.5,112.5,True,µg/m³,25.181818181818183,25.0,True,µg/m³,733.3333333333334,700.0,True,µg/m³,8.75,8.0,False,,,
369,湛江市,21.1997,110.3316,CN,True,µg/m³,40.666666666666664,39.5,True,µg/m³,14.083333333333334,13.5,True,µg/m³,150.66666666666666,150.5,True,µg/m³,45.0,44.0,True,µg/m³,666.6666666666666,700.0,True,µg/m³,8.583333333333334,8.0,False,,,
370,茂名市,21.4689,110.8592,CN,True,µg/m³,38.375,37.0,True,µg/m³,16.75,17.0,True,µg/m³,130.25,128.5,True,µg/m³,59.375,60.5,True,µg/m³,675.0,700.0,True,µg/m³,13.625,12.0,False,,,
371,梅州市,24.2654,116.1248,CN,True,µg/m³,50.333333333333336,51.0,True,µg/m³,34.5,35.0,True,µg/m³,88.66666666666667,87.0,True,µg/m³,58.6,58.0,True,µg/m³,1066.6666666666667,1100.0,True,µg/m³,10.833333333333334,10.5,False,,,
372,汕尾市,22.7898,115.3706,CN,True,µg/m³,24.8,25.0,True,µg/m³,10.4,11.0,True,µg/m³,107.5,122.0,True,µg/m³,36.8,36.0,True,µg/m³,820.0,800.0,True,µg/m³,8.0,8.0,False,,,
373,河源市,23.7233,114.6778,CN,True,µg/m³,40.5,41.5,True,µg/m³,29.833333333333332,26.5,True,µg/m³,102.66666666666667,103.0,True,µg/m³,52.6,51.0,True,µg/m³,833.3333333333334,850.0,True,µg/m³,10.5,10.0,False,,,
374,阳江市,21.8536,111.9508,CN,True,µg/m³,55.166666666666664,54.5,True,µg/m³,22.0,23.5,True,µg/m³,150.33333333333334,154.0,True,µg/m³,56.0,56.0,True,µg/m³,700.0,700.0,True,µg/m³,10.5,9.5,False,,,
375,清远市,23.63444,113.0208,CN,True,µg/m³,36.5,35.0,True,µg/m³,56.0,52.5,True,µg/m³,119.66666666666667,117.0,True,µg/m³,58.166666666666664,56.0,True,µg/m³,1033.3333333333333,1000.0,True,µg/m³,30.833333333333332,27.5,False,,,
376,潮州市,23.65889,116.6183,CN,True,µg/m³,52.333333333333336,40.0,True,µg/m³,17.333333333333332,17.0,True,µg/m³,96.33333333333333,111.0,True,µg/m³,41.0,39.0,True,µg/m³,883.3333333333334,800.0,True,µg/m³,17.666666666666668,18.5,False,,,
377,Ujjain,23.182719,75.768218,IN,True,µg/m³,104.5,104.5,True,µg/m³,39.45,39.900000000000006,False,,,,True,µg/m³,155.5,155.5,True,µg/m³,1230.0,1240.0,True,µg/m³,4.883333333333333,4.800000000000001,False,,,
378,揭阳市,23.5353,116.3594,CN,True,µg/m³,30.75,30.0,True,µg/m³,24.125,24.0,True,µg/m³,132.5,133.5,True,µg/m³,42.2,38.0,True,µg/m³,900.0,900.0,True,µg/m³,15.0,15.0,False,,,
379,Rajamahendravaram,16.9872867,81.7363176,IN,True,µg/m³,40.857142857142854,42.0,True,µg/m³,15.542857142857143,15.8,True,µg/m³,20.12857142857143,20.0,True,µg/m³,81.71428571428571,73.0,True,µg/m³,577.1428571428571,600.0,True,µg/m³,10.714285714285714,10.7,False,,,
380,云浮市,22.9169,112.0369,CN,True,µg/m³,65.66666666666667,62.5,True,µg/m³,59.833333333333336,68.0,True,µg/m³,121.0,126.0,True,µg/m³,86.5,83.0,True,µg/m³,983.3333333333334,1000.0,True,µg/m³,19.0,18.0,False,,,
381,Pithampur,22.624758,75.675238,IN,True,µg/m³,57.57142857142857,52.0,True,µg/m³,7.885714285714286,6.0,True,µg/m³,125.22857142857143,124.3,True,µg/m³,98.57142857142857,91.0,True,µg/m³,572.8571428571429,540.0,True,µg/m³,17.142857142857146,15.2,False,,,
382,玉溪市,24.339,102.5381,CN,True,µg/m³,19.666666666666668,22.0,True,µg/m³,23.333333333333332,25.5,True,µg/m³,73.33333333333333,74.0,True,µg/m³,37.333333333333336,42.0,True,µg/m³,1500.0,1450.0,True,µg/m³,8.833333333333334,8.5,False,,,
383,菏泽市,35.2375,115.42277,CN,True,µg/m³,88.5,89.0,True,µg/m³,42.5,42.5,True,µg/m³,74.33333333333333,75.0,True,µg/m³,125.0,125.5,True,µg/m³,1266.6666666666667,1300.0,True,µg/m³,13.0,12.5,False,,,
384,大同市,40.0758,113.2661,CN,True,µg/m³,35.916666666666664,36.5,True,µg/m³,37.333333333333336,37.5,True,µg/m³,75.66666666666667,78.0,True,µg/m³,77.41666666666667,65.0,True,µg/m³,3558.3333333333335,3350.0,True,µg/m³,31.75,24.5,False,,,
385,长治市,36.1542,113.0844444,CN,True,µg/m³,62.9,64.5,True,µg/m³,47.9,48.5,True,µg/m³,95.6,96.0,True,µg/m³,121.0,124.5,True,µg/m³,1780.0,1800.0,True,µg/m³,16.0,15.0,False,,,
386,临汾市,36.0417,111.4917,CN,True,µg/m³,72.16666666666667,71.5,True,µg/m³,71.5,71.0,True,µg/m³,90.16666666666667,89.5,True,µg/m³,127.91666666666667,130.0,True,µg/m³,1933.3333333333333,1950.0,True,µg/m³,74.66666666666667,79.0,False,,,
387,阳泉市,37.85,113.4922,CN,True,µg/m³,59.083333333333336,59.0,True,µg/m³,61.75,59.5,True,µg/m³,81.66666666666667,80.5,True,µg/m³,148.66666666666666,130.5,True,µg/m³,1500.0,1400.0,True,µg/m³,37.75,37.5,False,,,
388,赤峰市,42.0352,118.8789,CN,True,µg/m³,29.0,24.5,True,µg/m³,44.5,46.5,True,µg/m³,54.25,54.5,True,µg/m³,60.625,55.5,True,µg/m³,787.5,650.0,True,µg/m³,41.75,35.0,False,,,
389,Mandideep,23.10844,77.511428,IN,True,µg/m³,100.71428571428571,104.0,True,µg/m³,23.928571428571427,22.5,True,µg/m³,8.842857142857143,8.8,True,µg/m³,189.0,190.0,True,µg/m³,1161.6666666666667,1150.0,True,µg/m³,9.842857142857142,9.4,False,,,
390,鞍山市,41.0228,122.9481,CN,True,µg/m³,32.0,19.5,True,µg/m³,41.53846153846154,40.0,True,µg/m³,45.142857142857146,44.0,True,µg/m³,63.42857142857143,31.5,True,µg/m³,1035.7142857142858,800.0,True,µg/m³,13.071428571428571,12.5,False,,,
391,抚顺市,41.8417,123.7117,CN,True,µg/m³,60.25,60.5,True,µg/m³,43.5,43.0,True,µg/m³,53.666666666666664,54.0,True,µg/m³,94.16666666666667,102.0,True,µg/m³,1016.6666666666666,1050.0,True,µg/m³,30.25,21.5,False,,,
392,本溪市,41.2692,123.7308,CN,True,µg/m³,48.666666666666664,42.5,True,µg/m³,34.5,33.5,True,µg/m³,60.666666666666664,61.0,True,µg/m³,73.83333333333333,68.5,True,µg/m³,1633.3333333333333,1450.0,True,µg/m³,24.75,21.0,False,,,
393,锦州市,40.8333,121.045,CN,True,µg/m³,24.6,25.0,True,µg/m³,44.8,45.5,True,µg/m³,64.2,62.0,True,µg/m³,48.0,46.5,True,µg/m³,790.0,700.0,True,µg/m³,37.3,32.5,False,,,
394,吉林市,43.7256,126.4738889,CN,True,µg/m³,37.57142857142857,37.5,True,µg/m³,26.071428571428573,26.0,True,µg/m³,48.142857142857146,50.0,True,µg/m³,55.57142857142857,55.0,True,µg/m³,807.1428571428571,800.0,True,µg/m³,11.071428571428571,11.0,False,,,
395,齐齐哈尔市,47.203,123.9305,CN,True,µg/m³,25.9,26.5,True,µg/m³,15.8,14.5,True,µg/m³,44.6,44.0,True,µg/m³,45.0,42.0,True,µg/m³,460.0,400.0,True,µg/m³,13.1,7.0,False,,,
396,牡丹江市,44.561,129.61,CN,True,µg/m³,16.88888888888889,17.0,True,µg/m³,14.125,13.5,True,µg/m³,49.333333333333336,53.0,True,µg/m³,19.333333333333332,21.0,True,µg/m³,412.5,400.0,True,µg/m³,2.25,1.5,False,,,
397,大庆市,46.0347,124.8354,CN,True,µg/m³,24.6,23.0,True,µg/m³,24.4,22.0,True,µg/m³,58.8,46.0,True,µg/m³,33.55555555555556,30.0,True,µg/m³,570.0,600.0,True,µg/m³,6.3,5.5,False,,,
398,Talcher,20.9360711,85.1707021,IN,True,µg/m³,76.01142857142857,74.07,True,µg/m³,9.127142857142857,9.88,True,µg/m³,7.834285714285714,8.7,True,µg/m³,230.74857142857144,231.72,True,µg/m³,0.0,0.0,True,µg/m³,30.077142857142857,28.35,False,,,
399,芜湖市,31.3178,118.3528,CN,True,µg/m³,67.5,67.5,True,µg/m³,47.25,47.0,True,µg/m³,106.5,107.0,False,,,,True,µg/m³,900.0,900.0,True,µg/m³,7.75,8.0,False,,,
400,马鞍山市,31.6411,118.4828,CN,True,µg/m³,56.7,56.0,True,µg/m³,45.9,52.0,True,µg/m³,111.2,110.0,True,µg/m³,71.66666666666667,73.5,True,µg/m³,1010.0,1050.0,True,µg/m³,10.6,11.0,False,,,
401,九江市,29.5867,115.9114,CN,True,µg/m³,29.75,29.0,True,µg/m³,36.875,43.5,True,µg/m³,79.875,78.5,True,µg/m³,49.666666666666664,50.0,True,µg/m³,643.75,650.0,True,µg/m³,12.0625,11.5,False,,,
402,Dewas,22.9682591,76.064118,IN,True,µg/m³,47.57142857142857,48.0,True,µg/m³,15.37142857142857,8.5,True,µg/m³,132.8,140.3,True,µg/m³,83.28571428571429,85.0,True,µg/m³,312.85714285714283,250.0,True,µg/m³,7.116666666666667,7.05,False,,,
403,洛阳市,34.6869,112.3628,CN,True,µg/m³,98.78571428571429,98.5,True,µg/m³,65.57142857142857,65.5,True,µg/m³,72.0,74.0,True,µg/m³,145.5,142.0,True,µg/m³,1550.0,1550.0,True,µg/m³,14.071428571428571,13.0,False,,,
404,Amaravati,16.5150833,80.5181667,IN,True,µg/m³,62.714285714285715,63.0,True,µg/m³,71.17142857142856,70.4,True,µg/m³,8.1,7.8,True,µg/m³,119.14285714285714,122.0,True,µg/m³,590.0,600.0,True,µg/m³,6.814285714285715,7.6,False,,,
405,Brajrajnagar,21.8004996,83.8396977,IN,True,µg/m³,105.22833333333334,97.62,True,µg/m³,40.36000000000001,15.96,True,µg/m³,4.251666666666668,4.36,True,µg/m³,117.50166666666667,115.945,True,µg/m³,850.0,870.0,True,µg/m³,13.211666666666666,13.16,False,,,
406,安阳市,36.086,114.286,CN,True,µg/m³,159.3,165.0,True,µg/m³,65.7,65.5,True,µg/m³,61.4,68.0,True,µg/m³,200.5,203.5,True,µg/m³,2350.0,2200.0,True,µg/m³,41.9,42.5,False,,,
407,开封市,34.7975,114.3442,CN,True,µg/m³,60.5,61.0,True,µg/m³,46.0,48.5,True,µg/m³,77.5,77.0,True,µg/m³,67.6,67.0,True,µg/m³,1100.0,1100.0,True,µg/m³,14.625,15.0,False,,,
408,焦作市,35.1764,113.1992,CN,True,µg/m³,98.0,101.0,True,µg/m³,55.375,63.5,True,µg/m³,66.0,63.5,True,µg/m³,155.875,159.5,True,µg/m³,1600.0,1600.0,True,µg/m³,21.75,22.0,False,,,
409,平顶山市,33.721,113.182,CN,True,µg/m³,54.125,54.5,True,µg/m³,39.625,38.5,True,µg/m³,60.0,59.5,True,µg/m³,81.25,83.0,True,µg/m³,1037.5,1100.0,True,µg/m³,19.375,18.0,False,,,
410,三门峡市,34.794,111.158,CN,True,µg/m³,125.375,122.5,True,µg/m³,27.125,25.5,True,µg/m³,94.5,91.0,True,µg/m³,115.0,115.0,True,µg/m³,1137.5,1100.0,True,µg/m³,13.5,13.5,False,,,
411,宜昌市,30.6463,111.268,CN,True,µg/m³,38.4,39.0,True,µg/m³,22.8,25.0,True,µg/m³,31.0,30.0,True,µg/m³,55.2,56.5,True,µg/m³,980.0,1000.0,True,µg/m³,9.1,9.0,False,,,
412,荆州市,30.3055,112.2068,CN,True,µg/m³,26.666666666666668,28.0,True,µg/m³,38.666666666666664,39.0,True,µg/m³,51.666666666666664,54.0,True,µg/m³,48.166666666666664,47.5,True,µg/m³,1200.0,1250.0,True,µg/m³,16.5,15.5,False,,,
413,岳阳市,29.355,112.9943,CN,True,µg/m³,28.5,27.5,True,µg/m³,27.7,29.5,True,µg/m³,84.2,83.0,True,µg/m³,42.3,39.5,True,µg/m³,970.0,1000.0,True,µg/m³,13.4,7.0,False,,,
414,常德市,28.9881,111.6892,CN,True,µg/m³,31.2,33.0,True,µg/m³,24.6,27.5,True,µg/m³,40.8,36.0,True,µg/m³,38.0,38.5,True,µg/m³,960.0,950.0,True,µg/m³,7.4,6.0,False,,,
415,张家界市,29.1242,110.4417,CN,True,µg/m³,15.25,17.0,True,µg/m³,16.125,16.5,True,µg/m³,53.25,52.5,True,µg/m³,24.5,24.5,True,µg/m³,612.5,600.0,True,µg/m³,4.25,4.5,False,,,
416,桂林市,25.2178,110.2819,CN,True,µg/m³,39.0,39.5,True,µg/m³,31.875,38.0,True,µg/m³,97.25,100.0,True,µg/m³,48.375,47.5,True,µg/m³,700.0,700.0,True,µg/m³,13.125,14.5,False,,,
417,北海市,21.4086,109.0981,CN,True,µg/m³,54.625,55.0,True,µg/m³,18.875,20.5,True,µg/m³,118.0,110.5,True,µg/m³,58.0,54.0,True,µg/m³,1087.5,1050.0,True,µg/m³,15.875,16.5,False,,,
418,柳州市,24.299,109.3886,CN,True,µg/m³,70.91666666666667,83.5,True,µg/m³,45.0,49.0,True,µg/m³,71.83333333333333,73.5,True,µg/m³,112.33333333333333,114.0,True,µg/m³,1675.0,2050.0,True,µg/m³,43.333333333333336,35.5,False,,,
419,三亚市,18.2489,109.4964,CN,True,µg/m³,14.25,14.5,True,µg/m³,6.25,5.5,True,µg/m³,76.5,76.5,True,µg/m³,23.75,24.0,True,µg/m³,500.0,500.0,True,µg/m³,3.25,3.5,False,,,
420,绵阳市,31.4539,104.6717,CN,True,µg/m³,42.125,42.0,True,µg/m³,32.25,33.0,True,µg/m³,51.0,51.5,True,µg/m³,63.875,64.0,True,µg/m³,700.0,700.0,True,µg/m³,6.5,7.0,False,,,
421,宜宾市,28.76389,104.5969,CN,True,µg/m³,65.91666666666667,67.0,True,µg/m³,28.5,30.0,True,µg/m³,74.16666666666667,76.0,True,µg/m³,72.125,78.0,True,µg/m³,700.0,700.0,True,µg/m³,14.25,12.5,False,,,
422,攀枝花市,26.5017,101.5769,CN,True,µg/m³,55.1,57.0,True,µg/m³,46.9,48.0,True,µg/m³,88.8,89.0,True,µg/m³,81.7,84.0,True,µg/m³,2920.0,3150.0,True,µg/m³,47.6,31.0,False,,,
423,泸州市,28.8833,105.4322,CN,True,µg/m³,49.125,48.5,True,µg/m³,25.625,27.5,True,µg/m³,60.75,62.0,True,µg/m³,59.5,58.5,True,µg/m³,537.5,550.0,True,µg/m³,11.5,11.0,False,,,
424,自贡市,29.33972,104.7228,CN,True,µg/m³,47.375,44.5,True,µg/m³,29.333333333333332,27.5,True,µg/m³,38.5,36.5,True,µg/m³,64.625,60.5,True,µg/m³,625.0,600.0,True,µg/m³,8.5,8.5,False,,,
425,德阳市,31.1108,104.3539,CN,True,µg/m³,61.25,64.0,True,µg/m³,42.125,44.5,True,µg/m³,63.0,62.0,True,µg/m³,102.625,104.0,True,µg/m³,712.5,700.0,True,µg/m³,5.75,6.0,False,,,
426,南充市,30.7636,106.056,CN,True,µg/m³,42.416666666666664,45.0,True,µg/m³,24.75,24.5,True,µg/m³,53.166666666666664,51.5,True,µg/m³,58.083333333333336,59.5,True,µg/m³,941.6666666666666,700.0,True,µg/m³,6.0,5.0,False,,,
427,Asansol,23.685297,86.945968,IN,True,µg/m³,92.90142857142858,92.59,True,µg/m³,51.16857142857143,52.38,True,µg/m³,8.485714285714286,6.6,True,µg/m³,131.51142857142855,128.42,True,µg/m³,1288.5714285714287,1340.0,True,µg/m³,9.157142857142858,10.08,False,,,
428,遵义市,27.6486,106.8906,CN,True,µg/m³,16.0,15.0,True,µg/m³,18.875,18.5,True,µg/m³,23.25,23.0,True,µg/m³,30.875,29.5,True,µg/m³,575.0,550.0,True,µg/m³,8.25,7.0,False,,,
429,曲靖市,25.5035,103.7897,CN,True,µg/m³,11.75,11.5,True,µg/m³,13.0,12.5,True,µg/m³,78.5,78.5,True,µg/m³,31.75,31.5,True,µg/m³,625.0,650.0,True,µg/m³,10.5,11.0,False,,,
430,咸阳市,34.2969,108.6594,CN,True,µg/m³,126.75,128.5,True,µg/m³,68.375,71.5,True,µg/m³,74.25,74.5,True,µg/m³,132.33333333333334,133.5,True,µg/m³,1787.5,1750.0,True,µg/m³,9.75,11.0,False,,,
431,铜川市,34.8731,108.9344,CN,True,µg/m³,81.625,81.0,True,µg/m³,62.0,65.5,True,µg/m³,98.5,106.0,True,µg/m³,119.5,121.5,True,µg/m³,2225.0,2300.0,True,µg/m³,35.75,32.0,False,,,
432,延安市,36.5767,109.4131,CN,True,µg/m³,24.5,22.0,True,µg/m³,55.125,54.5,True,µg/m³,89.25,88.5,True,µg/m³,77.875,72.0,True,µg/m³,1600.0,1550.0,True,µg/m³,24.0,16.5,False,,,
433,宝鸡市,34.3017,107.0708,CN,True,µg/m³,82.125,75.0,True,µg/m³,47.1875,50.0,True,µg/m³,78.625,80.5,True,µg/m³,136.875,127.5,True,µg/m³,837.5,850.0,True,µg/m³,6.125,6.0,False,,,
434,渭南市,34.493,109.4266,CN,True,µg/m³,72.0,71.0,True,µg/m³,63.75,63.5,True,µg/m³,102.5,104.5,True,µg/m³,122.0,124.5,True,µg/m³,1000.0,950.0,True,µg/m³,9.375,9.5,False,,,
435,金昌市,38.5061,102.1708,CN,True,µg/m³,9.666666666666666,9.0,True,µg/m³,8.166666666666666,8.0,True,µg/m³,86.66666666666667,88.0,True,µg/m³,45.666666666666664,44.0,True,µg/m³,283.3333333333333,300.0,True,µg/m³,5.833333333333333,6.0,False,,,
436,嘉峪关市,39.7711,98.2908,CN,True,µg/m³,21.5,23.5,True,µg/m³,26.5,26.5,True,µg/m³,85.0,85.0,True,µg/m³,79.0,79.0,True,µg/m³,475.0,450.0,True,µg/m³,5.5,5.5,False,,,
437,石嘴山市,38.817,106.3394,CN,True,µg/m³,48.875,46.5,True,µg/m³,56.5,58.5,True,µg/m³,86.0,85.5,True,µg/m³,105.125,112.0,True,µg/m³,1825.0,1800.0,True,µg/m³,81.625,64.5,False,,,
438,克拉玛依市,44.3336,84.8861,CN,True,µg/m³,19.4,18.5,True,µg/m³,23.7,25.0,True,µg/m³,47.6,41.0,True,µg/m³,45.3,35.5,True,µg/m³,730.0,700.0,True,µg/m³,5.2,5.0,False,,,
439,库尔勒市,41.7128,86.1461,CN,True,µg/m³,16.0,17.0,True,µg/m³,30.333333333333332,24.5,True,µg/m³,77.0,71.0,True,µg/m³,31.333333333333332,32.0,True,µg/m³,566.6666666666666,650.0,True,µg/m³,5.166666666666667,5.0,False,,,
440,Satna,24.58434363,80.8549414,IN,True,µg/m³,3.6885714285714286,0.0,False,,,,False,,,,True,µg/m³,106.89571428571428,92.45,True,µg/m³,1621.4285714285713,1610.0,True,µg/m³,37.35285714285715,37.41,False,,,
441,寿光市,36.864,118.746,CN,True,µg/m³,104.75,101.5,True,µg/m³,42.25,42.0,True,µg/m³,95.0,95.0,True,µg/m³,179.75,179.5,True,µg/m³,2825.0,2700.0,True,µg/m³,15.5,15.5,False,,,
442,章丘市,36.71,117.541,CN,True,µg/m³,80.5,81.5,True,µg/m³,54.5,56.0,True,µg/m³,82.5,82.5,True,µg/m³,123.5,128.5,True,µg/m³,2100.0,2100.0,True,µg/m³,33.0,33.0,False,,,
443,即墨市,36.44,120.61,CN,True,µg/m³,66.75,65.5,True,µg/m³,58.5,58.5,True,µg/m³,81.5,81.5,True,µg/m³,144.66666666666666,144.0,True,µg/m³,2625.0,2600.0,True,µg/m³,11.0,10.0,False,,,
444,胶南市,35.872,120.005,CN,True,µg/m³,95.25,93.0,True,µg/m³,61.0,61.0,True,µg/m³,90.5,90.5,True,µg/m³,147.0,141.5,True,µg/m³,1450.0,1450.0,True,µg/m³,22.25,23.5,False,,,
445,胶州市,36.253,120.014,CN,True,µg/m³,130.0,130.0,True,µg/m³,66.0,66.0,True,µg/m³,105.0,105.0,True,µg/m³,199.5,199.5,True,µg/m³,1950.0,1950.0,True,µg/m³,22.5,22.5,False,,,
446,莱西市,36.865,120.515,CN,True,µg/m³,92.5,88.0,True,µg/m³,42.5,43.0,True,µg/m³,103.5,103.5,True,µg/m³,134.25,123.5,True,µg/m³,2000.0,2050.0,True,µg/m³,11.0,11.0,False,,,
447,平度市,36.799,119.976,CN,True,µg/m³,88.33333333333333,92.0,True,µg/m³,62.666666666666664,61.0,True,µg/m³,73.75,84.0,True,µg/m³,160.66666666666666,165.0,True,µg/m³,1266.6666666666667,1200.0,True,µg/m³,27.0,24.0,False,,,
448,蓬莱市,37.809,120.747,CN,True,µg/m³,36.75,36.0,True,µg/m³,41.25,39.5,True,µg/m³,104.0,104.0,True,µg/m³,59.25,59.0,True,µg/m³,1125.0,1050.0,True,µg/m³,9.25,9.5,False,,,
449,招远市,37.364,120.394,CN,True,µg/m³,62.5,60.5,True,µg/m³,29.75,29.0,True,µg/m³,117.5,117.5,True,µg/m³,97.5,91.0,True,µg/m³,1625.0,1550.0,True,µg/m³,8.25,8.0,False,,,
450,莱州市,37.177,119.941,CN,True,µg/m³,54.75,57.5,True,µg/m³,37.75,40.0,True,µg/m³,109.5,109.5,True,µg/m³,92.5,91.0,True,µg/m³,1650.0,1600.0,True,µg/m³,11.75,11.5,False,,,
451,荣成市,37.154,122.471,CN,True,µg/m³,40.0,40.0,True,µg/m³,32.0,32.0,True,µg/m³,107.0,107.0,True,µg/m³,70.5,70.5,True,µg/m³,1100.0,1100.0,True,µg/m³,11.5,11.5,False,,,
452,文登市,37.187,122.019,CN,True,µg/m³,39.5,38.0,True,µg/m³,34.5,34.0,True,µg/m³,103.5,103.5,True,µg/m³,79.25,81.0,True,µg/m³,1575.0,1550.0,True,µg/m³,6.25,6.5,False,,,
453,乳山市,36.907,121.544,CN,True,µg/m³,71.25,69.0,True,µg/m³,39.75,39.0,True,µg/m³,101.5,101.5,True,µg/m³,68.5,68.5,True,µg/m³,1500.0,1400.0,True,µg/m³,7.25,7.0,False,,,
454,吴江市,31.155,120.635,CN,True,µg/m³,73.5,70.5,True,µg/m³,67.16666666666667,67.5,True,µg/m³,98.66666666666667,101.0,True,µg/m³,89.6,91.0,True,µg/m³,983.3333333333334,1000.0,True,µg/m³,8.166666666666666,6.5,False,,,
455,昆山市,31.388,120.953,CN,True,µg/m³,86.0,86.0,True,µg/m³,69.5,69.5,True,µg/m³,97.0,97.0,False,,,,True,µg/m³,1100.0,1100.0,True,µg/m³,9.0,9.0,False,,,
456,常熟市,31.656,120.734,CN,True,µg/m³,86.33333333333333,89.0,True,µg/m³,61.333333333333336,68.5,True,µg/m³,113.66666666666667,110.0,True,µg/m³,107.75,107.5,True,µg/m³,900.0,750.0,True,µg/m³,16.2,19.0,False,,,
457,张家港市,31.874,120.526,CN,True,µg/m³,70.5,69.0,True,µg/m³,78.0,75.5,True,µg/m³,90.0,90.0,True,µg/m³,127.0,125.5,True,µg/m³,1050.0,1050.0,True,µg/m³,8.5,9.0,False,,,
458,太仓市,31.422,121.14,CN,True,µg/m³,80.5,81.5,True,µg/m³,71.0,69.0,True,µg/m³,101.5,101.5,True,µg/m³,110.5,110.5,True,µg/m³,1025.0,1050.0,True,µg/m³,12.0,11.5,False,,,
459,句容市,31.955,119.146,CN,True,µg/m³,89.5,89.5,True,µg/m³,68.5,69.0,True,µg/m³,95.5,95.5,True,µg/m³,108.75,110.5,True,µg/m³,1350.0,1350.0,True,µg/m³,7.25,7.0,False,,,
460,江阴市,31.92,120.237,CN,True,µg/m³,101.5,93.5,True,µg/m³,78.16666666666667,82.5,True,µg/m³,89.66666666666667,91.0,True,µg/m³,127.33333333333333,124.0,True,µg/m³,1200.0,1250.0,True,µg/m³,16.0,18.0,False,,,
461,宜兴市,31.354,119.818,CN,True,µg/m³,65.75,67.0,True,µg/m³,65.5,66.0,True,µg/m³,118.0,118.0,True,µg/m³,87.5,87.5,True,µg/m³,1350.0,1350.0,True,µg/m³,39.5,40.0,False,,,
462,金坛市,31.751,119.579,CN,True,µg/m³,67.66666666666667,66.0,True,µg/m³,78.0,79.0,True,µg/m³,123.5,123.5,True,µg/m³,85.0,85.0,True,µg/m³,1533.3333333333333,1400.0,True,µg/m³,11.666666666666666,10.0,False,,,
463,溧阳市,31.317,119.438,CN,True,µg/m³,78.75,80.5,True,µg/m³,53.75,53.5,True,µg/m³,122.0,122.0,True,µg/m³,101.0,100.0,True,µg/m³,1125.0,1100.0,True,µg/m³,6.5,6.5,False,,,
464,海门市,31.896,121.1518,CN,True,µg/m³,53.5,53.0,True,µg/m³,41.75,41.0,True,µg/m³,114.0,114.0,True,µg/m³,70.5,72.0,True,µg/m³,1075.0,1050.0,True,µg/m³,8.0,8.0,False,,,
465,临安市,30.2311,119.6942,CN,True,µg/m³,29.25,29.5,True,µg/m³,24.0,24.0,True,µg/m³,103.25,98.5,True,µg/m³,65.25,65.5,True,µg/m³,775.0,750.0,True,µg/m³,7.75,7.0,False,,,
466,富阳市,30.049,119.946,CN,True,µg/m³,43.5,43.5,True,µg/m³,34.0,34.0,True,µg/m³,92.0,92.0,True,µg/m³,76.5,76.5,True,µg/m³,1300.0,1300.0,True,µg/m³,9.0,9.0,False,,,
467,义乌市,29.305,120.04,CN,True,µg/m³,48.25,48.5,True,µg/m³,42.75,42.0,True,µg/m³,106.5,106.5,True,µg/m³,70.0,70.0,True,µg/m³,800.0,800.0,True,µg/m³,13.5,13.5,False,,,
468,诸暨市,29.732,120.209,CN,True,µg/m³,33.0,33.0,True,µg/m³,33.0,33.0,True,µg/m³,106.0,106.0,True,µg/m³,62.0,62.0,True,µg/m³,900.0,900.0,True,µg/m³,6.5,6.5,False,,,
469,瓦房店市,39.617,122.011,CN,True,µg/m³,40.5,40.5,True,µg/m³,37.75,39.0,True,µg/m³,50.0,50.0,True,µg/m³,43.5,46.0,True,µg/m³,450.0,450.0,True,µg/m³,32.0,32.0,False,,,
470,信阳市,32.1078,114.0122,CN,True,µg/m³,41.0,40.5,True,µg/m³,41.5,43.0,True,µg/m³,96.0,94.5,True,µg/m³,55.75,53.5,True,µg/m³,862.5,900.0,True,µg/m³,6.75,7.0,False,,,
471,周口市,33.5979,114.6369,CN,True,µg/m³,59.125,59.0,True,µg/m³,48.875,49.0,True,µg/m³,91.0,91.0,True,µg/m³,73.125,72.5,True,µg/m³,1100.0,1100.0,True,µg/m³,15.5,15.5,False,,,
472,漳州市,24.4674,117.6336,CN,True,µg/m³,29.666666666666668,32.0,True,µg/m³,34.166666666666664,33.5,True,µg/m³,86.33333333333333,85.0,True,µg/m³,52.333333333333336,54.0,True,µg/m³,816.6666666666666,800.0,True,µg/m³,7.833333333333333,7.5,False,,,
473,晋城市,35.4813,112.8252,CN,True,µg/m³,94.08333333333333,90.5,True,µg/m³,47.916666666666664,46.5,True,µg/m³,98.33333333333333,96.5,True,µg/m³,175.25,171.5,True,µg/m³,3800.0,3450.0,True,µg/m³,32.0,31.5,False,,,
474,朔州市,39.3179,112.4078,CN,True,µg/m³,89.9,95.5,True,µg/m³,59.3,56.5,True,µg/m³,75.6,74.0,True,µg/m³,238.8,218.5,True,µg/m³,1230.0,1200.0,True,µg/m³,89.2,90.5,False,,,
475,晋中市,37.68277778,112.7105,CN,True,µg/m³,54.125,51.5,True,µg/m³,67.0,66.0,True,µg/m³,82.0,82.5,True,µg/m³,110.625,108.0,True,µg/m³,1000.0,1000.0,True,µg/m³,29.5,28.5,False,,,
476,运城市,35.0147,110.9678,CN,True,µg/m³,63.0,58.0,True,µg/m³,39.2,40.5,True,µg/m³,121.4,124.0,True,µg/m³,102.2,97.0,True,µg/m³,1230.0,1150.0,True,µg/m³,19.4,18.0,False,,,
477,忻州市,38.4186,112.7003,CN,True,µg/m³,59.833333333333336,42.0,True,µg/m³,50.5,55.0,True,µg/m³,76.33333333333333,76.0,True,µg/m³,100.83333333333333,88.0,True,µg/m³,1433.3333333333333,1100.0,True,µg/m³,57.333333333333336,27.5,False,,,
478,吕梁市,37.51,111.1283333,CN,True,µg/m³,33.833333333333336,31.5,True,µg/m³,54.666666666666664,57.0,True,µg/m³,81.33333333333333,82.0,True,µg/m³,80.0,75.5,True,µg/m³,783.3333333333334,750.0,True,µg/m³,40.166666666666664,39.5,False,,,
479,乌海市,39.6572,106.7931,CN,True,µg/m³,37.0,36.5,True,µg/m³,42.666666666666664,46.5,True,µg/m³,84.33333333333333,85.0,True,µg/m³,60.0,61.5,True,µg/m³,983.3333333333334,1100.0,True,µg/m³,12.833333333333334,14.5,False,,,
480,Rupnagar,31.0325454,76.5623046,IN,True,µg/m³,56.10166666666667,59.004999999999995,True,µg/m³,13.466666666666667,13.615,False,,,,True,µg/m³,149.55666666666664,163.56,True,µg/m³,663.3333333333334,665.0,True,µg/m³,6.443333333333334,6.335,False,,,
481,通辽市,43.6156,122.2532,CN,True,µg/m³,21.666666666666668,21.0,True,µg/m³,24.666666666666668,25.0,True,µg/m³,70.33333333333333,71.0,True,µg/m³,45.333333333333336,39.5,True,µg/m³,266.6666666666667,300.0,True,µg/m³,9.666666666666666,10.5,False,,,
482,呼伦贝尔市,49.1577,119.7512,CN,True,µg/m³,24.25,26.0,True,µg/m³,15.75,16.0,True,µg/m³,54.0,54.0,True,µg/m³,27.5,28.5,True,µg/m³,275.0,250.0,True,µg/m³,3.0,3.0,False,,,
483,巴彦淖尔市,40.7378,107.3715,CN,True,µg/m³,26.333333333333332,19.5,True,µg/m³,37.666666666666664,40.5,True,µg/m³,85.33333333333333,82.0,True,µg/m³,48.666666666666664,39.0,True,µg/m³,683.3333333333334,700.0,True,µg/m³,12.0,11.5,False,,,
484,乌兰察布市,40.9923,113.1076,CN,True,µg/m³,24.25,21.5,True,µg/m³,55.75,55.0,True,µg/m³,87.5,87.5,True,µg/m³,53.5,41.0,True,µg/m³,1250.0,1200.0,True,µg/m³,23.5,25.5,False,,,
485,兴安盟,46.0703,122.0506,CN,True,µg/m³,19.0,20.5,True,µg/m³,18.666666666666668,19.5,True,µg/m³,70.33333333333333,70.0,True,µg/m³,29.5,27.5,True,µg/m³,316.6666666666667,300.0,True,µg/m³,4.166666666666667,4.0,False,,,
486,锡林郭勒盟,43.9311,116.0781,CN,True,µg/m³,3.5,3.0,True,µg/m³,20.0,18.5,True,µg/m³,71.0,71.0,True,µg/m³,9.25,8.0,True,µg/m³,550.0,550.0,True,µg/m³,16.0,16.0,False,,,
487,阿拉善盟,38.8516,105.724,CN,True,µg/m³,18.333333333333332,22.5,True,µg/m³,6.833333333333333,6.5,True,µg/m³,97.66666666666667,97.0,True,µg/m³,34.666666666666664,36.0,True,µg/m³,400.0,400.0,True,µg/m³,8.5,8.0,False,,,
488,阜新市,42.0186,121.6561,CN,True,µg/m³,29.4,27.0,True,µg/m³,35.7,42.0,True,µg/m³,70.8,71.0,True,µg/m³,42.22222222222222,44.0,True,µg/m³,540.0,500.0,True,µg/m³,31.7,31.0,False,,,
489,辽阳市,41.1953,123.1417,CN,True,µg/m³,30.0,27.0,True,µg/m³,36.75,37.0,True,µg/m³,52.75,54.0,True,µg/m³,66.125,66.5,True,µg/m³,950.0,800.0,True,µg/m³,14.25,14.0,False,,,
490,Khanna,30.736056,76.209694,IN,True,µg/m³,105.46142857142858,103.68,True,µg/m³,52.207142857142856,52.29,True,µg/m³,3.261428571428571,2.89,True,µg/m³,136.6042857142857,120.93,True,µg/m³,0.34142857142857147,0.31,True,µg/m³,2.8285714285714287,2.77,False,,,
491,铁岭市,42.2217,123.7153,CN,True,µg/m³,37.0,26.0,True,µg/m³,39.714285714285715,43.0,True,µg/m³,66.42857142857143,65.0,True,µg/m³,75.42857142857143,54.0,True,µg/m³,485.7142857142857,500.0,True,µg/m³,21.714285714285715,19.0,False,,,
492,朝阳市,41.5647,120.4247,CN,True,µg/m³,22.0,18.5,True,µg/m³,33.0,35.5,True,µg/m³,66.5,66.0,True,µg/m³,46.166666666666664,45.0,True,µg/m³,837.5,850.0,True,µg/m³,18.625,17.0,False,,,
493,Jalandhar,31.321907,75.578914,IN,True,µg/m³,58.604000000000006,57.8,True,µg/m³,5.08,4.7,True,µg/m³,10.21,10.21,True,µg/m³,77.352,76.26,True,µg/m³,412.0,410.0,True,µg/m³,3.4799999999999995,3.5,False,,,
494,Patiala,30.349388,76.366642,IN,True,µg/m³,89.9857142857143,91.2,True,µg/m³,18.414285714285715,18.4,True,µg/m³,0.6799999999999999,0.68,True,µg/m³,117.85714285714286,118.6,True,µg/m³,2022.857142857143,2009.9999999999998,True,µg/m³,13.947142857142856,13.94,False,,,
495,四平市,43.1594,124.3419,CN,True,µg/m³,10.833333333333334,11.0,True,µg/m³,18.666666666666668,17.5,True,µg/m³,76.0,73.0,True,µg/m³,23.666666666666668,25.0,True,µg/m³,316.6666666666667,300.0,True,µg/m³,4.333333333333333,4.0,False,,,
496,Greater Noida,28.47272,77.482,IN,True,µg/m³,310.14285714285717,314.0,True,µg/m³,100.7,101.4,True,µg/m³,4.871428571428572,4.6,True,µg/m³,391.85714285714283,403.0,True,µg/m³,3282.8571428571427,3270.0,True,µg/m³,11.157142857142858,11.0,False,,,
497,辽源市,42.8947,125.1358,CN,True,µg/m³,24.75,24.0,True,µg/m³,23.0,22.0,True,µg/m³,71.0,71.0,True,µg/m³,32.75,32.0,True,µg/m³,525.0,550.0,True,µg/m³,9.0,8.0,False,,,
498,通化市,41.7156,125.9361,CN,True,µg/m³,44.75,43.5,True,µg/m³,28.75,29.0,True,µg/m³,72.0,72.0,True,µg/m³,66.0,62.5,True,µg/m³,1375.0,1350.0,True,µg/m³,15.5,16.0,False,,,
499,白山市,41.9206,126.4047,CN,True,µg/m³,48.75,48.5,True,µg/m³,30.25,30.5,True,µg/m³,71.0,71.0,True,µg/m³,79.75,81.0,True,µg/m³,1725.0,1750.0,True,µg/m³,19.75,18.5,False,,,
500,松原市,45.0878,124.8292,CN,True,µg/m³,32.25,30.0,True,µg/m³,13.0,12.5,True,µg/m³,47.5,47.5,True,µg/m³,62.5,59.0,True,µg/m³,550.0,550.0,True,µg/m³,4.25,4.0,False,,,
501,白城市,45.6289,122.8444,CN,True,µg/m³,22.25,22.0,True,µg/m³,23.25,24.0,True,µg/m³,67.5,67.5,True,µg/m³,32.666666666666664,31.0,True,µg/m³,1000.0,1000.0,True,µg/m³,11.5,11.0,False,,,
502,延边州,42.8775,129.3675,CN,True,µg/m³,48.666666666666664,49.5,True,µg/m³,37.0,36.0,True,µg/m³,72.0,72.0,True,µg/m³,64.8,66.0,True,µg/m³,900.0,900.0,True,µg/m³,15.0,12.5,False,,,
503,鸡西市,45.305,130.9817,CN,True,µg/m³,12.875,13.0,True,µg/m³,9.25,9.0,True,µg/m³,42.25,39.5,True,µg/m³,13.5,14.0,True,µg/m³,387.5,350.0,True,µg/m³,2.25,3.0,False,,,
504,鹤岗市,47.2753,130.261,CN,True,µg/m³,13.428571428571429,15.0,True,µg/m³,8.0,7.0,True,µg/m³,64.14285714285714,64.0,True,µg/m³,15.833333333333334,19.0,True,µg/m³,442.85714285714283,400.0,True,µg/m³,7.0,8.0,False,,,
505,双鸭山市,46.619,131.1638,CN,True,µg/m³,11.75,14.5,True,µg/m³,13.5,13.0,True,µg/m³,61.75,62.5,True,µg/m³,19.6,15.0,True,µg/m³,387.5,350.0,True,µg/m³,3.75,2.5,False,,,
506,伊春市,47.7222,128.8736,CN,True,µg/m³,11.25,10.5,True,µg/m³,8.0,8.0,True,µg/m³,49.5,49.5,True,µg/m³,20.5,21.0,True,µg/m³,175.0,200.0,True,µg/m³,4.0,4.0,False,,,
507,佳木斯市,46.7975,130.2719,CN,True,µg/m³,6.4,6.5,True,µg/m³,11.6,7.5,True,µg/m³,53.6,52.0,True,µg/m³,13.6,12.0,True,µg/m³,420.0,400.0,True,µg/m³,3.2,2.5,False,,,
508,七台河市,45.7677,130.9467,CN,True,µg/m³,11.666666666666666,11.0,True,µg/m³,22.666666666666668,19.0,True,µg/m³,55.0,58.0,True,µg/m³,12.75,13.5,True,µg/m³,316.6666666666667,350.0,True,µg/m³,6.666666666666667,7.0,False,,,
509,黑河市,50.2391,127.4961,CN,True,µg/m³,12.333333333333334,9.0,True,µg/m³,9.333333333333334,8.5,True,µg/m³,61.333333333333336,55.0,True,µg/m³,44.0,41.5,True,µg/m³,400.0,400.0,True,µg/m³,11.0,9.5,False,,,
510,绥化市,46.6384,126.9636,CN,True,µg/m³,15.5,16.0,True,µg/m³,7.25,7.0,True,µg/m³,34.5,34.5,True,µg/m³,20.25,19.5,True,µg/m³,475.0,500.0,True,µg/m³,2.5,2.5,False,,,
511,大兴安岭地区,50.4217,124.1186,CN,True,µg/m³,19.5,19.0,True,µg/m³,14.75,16.5,True,µg/m³,64.0,64.0,True,µg/m³,32.25,32.0,True,µg/m³,475.0,500.0,True,µg/m³,30.0,29.5,False,,,
512,蚌埠市,32.8913,117.3065,CN,True,µg/m³,62.333333333333336,64.0,True,µg/m³,78.91666666666667,78.0,True,µg/m³,117.0,118.5,True,µg/m³,84.33333333333333,84.0,True,µg/m³,991.6666666666666,950.0,True,µg/m³,40.583333333333336,40.5,False,,,
513,淮南市,32.6028,116.7039,CN,True,µg/m³,59.083333333333336,58.5,True,µg/m³,52.083333333333336,50.0,True,µg/m³,105.33333333333333,104.5,True,µg/m³,82.75,83.0,True,µg/m³,958.3333333333334,900.0,True,µg/m³,17.666666666666668,17.0,False,,,
514,Bengaluru,12.917348,77.622813,IN,True,µg/m³,61.69815789473684,50.0,True,µg/m³,31.34771428571429,20.2,True,µg/m³,12.527500000000002,13.219999999999999,True,µg/m³,91.22516129032257,84.0,True,µg/m³,372.84051282051286,2.76,True,µg/m³,15.070937500000005,3.645,False,,,
515,淮北市,33.8997,116.7844,CN,True,µg/m³,62.166666666666664,60.5,True,µg/m³,60.833333333333336,61.0,True,µg/m³,98.66666666666667,98.0,True,µg/m³,74.16666666666667,75.0,True,µg/m³,1066.6666666666667,1100.0,True,µg/m³,11.666666666666666,11.5,False,,,
516,Bathinda ,30.233011,74.907758,IN,True,µg/m³,18.267142857142858,0.0,True,µg/m³,5.115714285714286,0.0,False,,,,True,µg/m³,36.01428571428571,0.0,True,µg/m³,0.0,0.0,True,µg/m³,4.064285714285715,0.0,False,,,
517,Bulandshahr,28.406963,77.849831,IN,True,µg/m³,325.2857142857143,331.0,True,µg/m³,51.23333333333333,50.9,True,µg/m³,3.085714285714286,3.0,False,,,,True,µg/m³,1715.0,2135.0,True,µg/m³,20.2,18.9,False,,,
518,Muzaffarnagar,29.4723508,77.7194031,IN,True,µg/m³,192.28571428571428,193.0,True,µg/m³,54.214285714285715,54.4,True,µg/m³,0.5342857142857144,0.55,False,,,,True,µg/m³,901.4285714285714,920.0,False,,,,False,,,
519,铜陵市,30.9414,117.7442,CN,True,µg/m³,38.083333333333336,36.0,True,µg/m³,58.583333333333336,61.0,True,µg/m³,84.16666666666667,87.5,True,µg/m³,58.333333333333336,53.5,True,µg/m³,1058.3333333333333,1050.0,True,µg/m³,20.75,12.0,False,,,
520,安庆市,30.5103,116.9894,CN,True,µg/m³,33.0,32.5,True,µg/m³,46.25,46.0,True,µg/m³,106.75,109.5,True,µg/m³,45.5,46.0,True,µg/m³,712.5,700.0,True,µg/m³,6.75,6.5,False,,,
521,黄山市,29.7128,118.1371,CN,True,µg/m³,10.5,11.0,True,µg/m³,13.166666666666666,14.0,True,µg/m³,57.666666666666664,51.0,True,µg/m³,17.0,15.0,True,µg/m³,500.0,500.0,True,µg/m³,5.833333333333333,6.0,False,,,
522,滁州市,32.2786,118.3094,CN,True,µg/m³,59.5,59.0,True,µg/m³,78.83333333333333,80.5,True,µg/m³,110.66666666666667,113.0,True,µg/m³,75.33333333333333,70.0,True,µg/m³,1066.6666666666667,1050.0,True,µg/m³,9.833333333333334,10.5,False,,,
523,阜阳市,32.8603,115.7838889,CN,True,µg/m³,52.0,52.5,True,µg/m³,45.5,43.5,True,µg/m³,96.33333333333333,95.0,True,µg/m³,75.83333333333333,71.5,True,µg/m³,866.6666666666666,850.0,True,µg/m³,13.5,13.0,False,,,
524,宿州市,33.6284,116.9677,CN,True,µg/m³,64.66666666666667,61.5,True,µg/m³,58.333333333333336,61.0,True,µg/m³,98.66666666666667,100.0,True,µg/m³,83.4,83.0,True,µg/m³,750.0,750.0,True,µg/m³,9.0,9.0,False,,,
525,六安市,31.7371,116.478,CN,True,µg/m³,42.5,43.5,True,µg/m³,49.5,48.5,True,µg/m³,99.75,98.0,True,µg/m³,64.125,63.5,True,µg/m³,850.0,850.0,True,µg/m³,3.5,4.0,False,,,
526,亳州市,33.8399,115.7831,CN,True,µg/m³,53.0,53.0,True,µg/m³,38.25,40.5,True,µg/m³,108.5,108.5,True,µg/m³,70.75,72.0,True,µg/m³,850.0,850.0,True,µg/m³,13.5,13.0,False,,,
527,池州市,30.6539,117.4697,CN,True,µg/m³,21.5,22.0,True,µg/m³,40.333333333333336,39.5,True,µg/m³,87.66666666666667,88.0,True,µg/m³,37.666666666666664,37.0,True,µg/m³,566.6666666666666,600.0,True,µg/m³,6.166666666666667,6.0,False,,,
528,宣城市,30.9431,118.7175,CN,True,µg/m³,47.833333333333336,48.0,True,µg/m³,52.833333333333336,55.0,True,µg/m³,104.33333333333333,105.0,True,µg/m³,60.0,62.0,True,µg/m³,633.3333333333334,650.0,True,µg/m³,7.666666666666667,7.5,False,,,
529,莆田市,25.3214,118.981,CN,True,µg/m³,22.8,23.0,True,µg/m³,17.9,18.5,True,µg/m³,70.4,70.0,True,µg/m³,29.875,29.0,True,µg/m³,750.0,800.0,True,µg/m³,5.8,6.0,False,,,
530,三明市,26.2625,117.6211,CN,True,µg/m³,49.285714285714285,46.0,True,µg/m³,27.0,28.0,True,µg/m³,81.71428571428571,81.0,True,µg/m³,54.166666666666664,53.0,True,µg/m³,1085.7142857142858,1000.0,True,µg/m³,20.142857142857142,18.0,False,,,
531,南平市,26.6272,118.1694,CN,True,µg/m³,24.5,29.0,True,µg/m³,18.25,21.5,True,µg/m³,65.625,61.5,True,µg/m³,36.166666666666664,34.5,True,µg/m³,800.0,800.0,True,µg/m³,10.25,10.5,False,,,
532,龙岩市,25.0311,117.0151,CN,True,µg/m³,46.25,46.5,True,µg/m³,28.5,29.5,True,µg/m³,81.25,85.0,True,µg/m³,59.285714285714285,52.0,True,µg/m³,962.5,900.0,True,µg/m³,16.0,15.0,False,,,
533,宁德市,26.6607,119.5202,CN,True,µg/m³,29.833333333333332,30.0,True,µg/m³,18.5,19.0,True,µg/m³,51.0,51.0,True,µg/m³,33.666666666666664,32.0,True,µg/m³,883.3333333333334,900.0,True,µg/m³,7.666666666666667,8.0,False,,,
534,景德镇市,29.2647,117.1558,CN,True,µg/m³,19.7,17.0,True,µg/m³,14.3,14.0,True,µg/m³,77.4,75.0,True,µg/m³,32.8,31.0,True,µg/m³,750.0,700.0,True,µg/m³,13.9,14.5,False,,,
535,萍乡市,27.4948,113.8381,CN,True,µg/m³,46.9,48.0,True,µg/m³,33.2,37.0,True,µg/m³,72.6,72.0,True,µg/m³,68.9,72.0,True,µg/m³,1480.0,1000.0,True,µg/m³,34.0,37.5,False,,,
536,新余市,27.7758,114.9119,CN,True,µg/m³,48.8,49.5,True,µg/m³,55.2,53.0,True,µg/m³,71.8,61.0,True,µg/m³,105.8,110.5,True,µg/m³,1000.0,1000.0,True,µg/m³,69.8,74.0,False,,,
537,鹰潭市,28.095,116.9622,CN,True,µg/m³,43.1,42.0,True,µg/m³,23.5,22.5,True,µg/m³,101.8,102.0,True,µg/m³,56.0,65.0,True,µg/m³,550.0,600.0,True,µg/m³,33.1,35.5,False,,,
538,赣州市,25.8333,114.8905,CN,True,µg/m³,24.5,24.0,True,µg/m³,20.9,22.5,True,µg/m³,105.8,107.0,True,µg/m³,39.8,37.5,True,µg/m³,1140.0,1200.0,True,µg/m³,22.0,17.5,False,,,
539,吉安市,27.0658,114.9739,CN,True,µg/m³,40.125,40.0,True,µg/m³,31.625,28.0,True,µg/m³,103.75,104.0,True,µg/m³,67.875,66.5,True,µg/m³,550.0,600.0,True,µg/m³,35.625,35.5,False,,,
540,宜春市,27.7842,114.3442,CN,True,µg/m³,45.9,47.0,True,µg/m³,57.5,57.5,True,µg/m³,69.4,69.0,True,µg/m³,83.1,82.5,True,µg/m³,1000.0,1000.0,True,µg/m³,79.3,69.5,False,,,
541,抚州市,27.9639,116.2239,CN,True,µg/m³,38.7,42.0,True,µg/m³,25.1,25.5,True,µg/m³,105.6,104.0,True,µg/m³,64.1,68.0,True,µg/m³,790.0,700.0,True,µg/m³,21.9,23.0,False,,,
542,上饶市,28.4303,117.9033,CN,True,µg/m³,32.0,34.0,True,µg/m³,44.0,42.0,True,µg/m³,81.0,80.5,True,µg/m³,59.5,59.5,True,µg/m³,862.5,800.0,True,µg/m³,37.25,32.0,False,,,
543,鹤壁市,35.7306,114.17,CN,True,µg/m³,106.33333333333333,104.0,True,µg/m³,64.66666666666667,63.0,True,µg/m³,71.66666666666667,70.0,True,µg/m³,168.0,167.5,True,µg/m³,3083.3333333333335,2950.0,True,µg/m³,34.333333333333336,33.5,False,,,
544,新乡市,35.272,113.5922,CN,True,µg/m³,108.625,107.0,True,µg/m³,68.125,68.0,True,µg/m³,78.75,82.0,True,µg/m³,155.25,151.0,True,µg/m³,1962.5,2000.0,True,µg/m³,16.375,16.5,False,,,
545,濮阳市,35.763,115.0061,CN,True,µg/m³,94.875,96.0,True,µg/m³,44.875,45.5,True,µg/m³,92.75,92.5,True,µg/m³,102.57142857142857,104.0,True,µg/m³,1400.0,1400.0,True,µg/m³,14.125,14.0,False,,,
546,许昌市,33.9953,113.7906,CN,True,µg/m³,57.833333333333336,55.5,True,µg/m³,49.333333333333336,50.0,True,µg/m³,71.0,72.0,True,µg/m³,79.33333333333333,78.0,True,µg/m³,1150.0,1100.0,True,µg/m³,15.833333333333334,16.5,False,,,
547,漯河市,33.5653,114.005,CN,True,µg/m³,58.5,55.0,True,µg/m³,49.0,49.5,True,µg/m³,77.0,77.0,True,µg/m³,73.75,74.0,True,µg/m³,837.5,850.0,True,µg/m³,9.75,9.0,False,,,
548,南阳市,32.9683,112.5003,CN,True,µg/m³,39.8,36.0,True,µg/m³,30.0,29.0,True,µg/m³,41.6,41.0,True,µg/m³,54.0,48.5,True,µg/m³,860.0,900.0,True,µg/m³,4.5,5.5,False,,,
