{"date":{"utc":"2018-11-10T00:00:00.000Z","local":"2018-11-10T01:00:00+01:00"},"parameter":"pm25","value":4.3,"unit":"µg/m³","averagingPeriod":{"unit":"hours","value":1},"location":"Ringsakervegen","city":"Brumunddal","country":"NO","coordinates":{"latitude":60.88593,"longitude":10.93785},"attribution":[{"name":"Luftkvalitet.info","url":"http://www.luftkvalitet.info/home.aspx"}],"sourceName":"Norway","sourceType":"government","mobile":false}
{"date":{"utc":"2018-11-10T00:00:00.000Z","local":"2018-11-10T01:00:00+01:00"},"parameter":"pm10","value":5.1,"unit":"µg/m³","averagingPeriod":{"unit":"hours","value":1},"location":"Ringsakervegen","city":"Brumunddal","country":"NO","coordinates":{"latitude":60.88593,"longitude":10.93785},"attribution":[{"name":"Luftkvalitet.info","url":"http://www.luftkvalitet.info/home.aspx"}],"sourceName":"Norway","sourceType":"government","mobile":false}
{"date":{"utc":"2018-11-10T00:00:00.000Z","local":"2018-11-10T01:00:00+01:00"},"parameter":"pm10","value":2.4,"unit":"µg/m³","averagingPeriod":{"unit":"hours","value":1},"location":"Vaterland","city":"Halden","country":"NO","coordinates":{"latitude":59.123314,"longitude":11.391136},"attribution":[{"name":"Luftkvalitet.info","url":"http://www.luftkvalitet.info/home.aspx"}],"sourceName":"Norway","sourceType":"government","mobile":false}
{"date":{"utc":"2018-11-10T00:00:00.000Z","local":"2018-11-10T01:00:00+01:00"},"parameter":"pm25","value":2,"unit":"µg/m³","averagingPeriod":{"unit":"hours","value":1},"location":"Vaterland","city":"Halden","country":"NO","coordinates":{"latitude":59.123314,"longitude":11.391136},"attribution":[{"name":"Luftkvalitet.info","url":"http://www.luftkvalitet.info/home.aspx"}],"sourceName":"Norway","sourceType":"government","mobile":false}
{"date":{"utc":"2018-11-10T00:00:00.000Z","local":"2018-11-10T01:00:00+01:00"},"parameter":"pm25","value":1.4,"unit":"µg/m³","averagingPeriod":{"unit":"hours","value":1},"location":"Kannik","city":"Stavanger","country":"NO","coordinates":{"latitude":58.96415,"longitude":5.72785},"attribution":[{"name":"Luftkvalitet.info","url":"http://www.luftkvalitet.info/home.aspx"}],"sourceName":"Norway","sourceType":"government","mobile":false}
{"date":{"utc":"2018-11-09T23:00:00.000Z","local":"2018-11-10T06:00:00+07:00"},"parameter":"co","value":0.97,"unit":"ppm","averagingPeriod":{"value":1,"unit":"hours"},"location":"Bang Sao Thong, Bang Sao Thong","city":"Samut Prakan","country":"TH","coordinates":{"longitude":100.78940318041,"latitude":13.567696531322},"attribution":[{"name":"Pollution Control Department","url":"http://www.aqmthai.com/index.php"}],"sourceName":"Thailand","sourceType":"government","mobile":false}
{"date":{"utc":"2018-11-10T00:00:00.000Z","local":"2018-11-10T01:00:00+01:00"},"parameter":"pm10","value":1.9,"unit":"µg/m³","averagingPeriod":{"unit":"hours","value":1},"location":"Kannik","city":"Stavanger","country":"NO","coordinates":{"latitude":58.96415,"longitude":5.72785},"attribution":[{"name":"Luftkvalitet.info","url":"http://www.luftkvalitet.info/home.aspx"}],"sourceName":"Norway","sourceType":"government","mobile":false}
{"date":{"utc":"2018-11-09T23:00:00.000Z","local":"2018-11-10T06:00:00+07:00"},"parameter":"pm10","value":47,"unit":"µg/m³","averagingPeriod":{"value":24,"unit":"hours"},"location":"Bang Sao Thong, Bang Sao Thong","city":"Samut Prakan","country":"TH","coordinates":{"longitude":100.78940318041,"latitude":13.567696531322},"attribution":[{"name":"Pollution Control Department","url":"http://www.aqmthai.com/index.php"}],"sourceName":"Thailand","sourceType":"government","mobile":false}
{"date":{"utc":"2018-11-10T00:00:00.000Z","local":"2018-11-10T01:00:00+01:00"},"parameter":"pm25","value":5.99,"unit":"µg/m³","averagingPeriod":{"unit":"hours","value":1},"location":"Alnabru","city":"Oslo","country":"NO","coordinates":{"latitude":59.92773,"longitude":10.84633},"attribution":[{"name":"Luftkvalitet.info","url":"http://www.luftkvalitet.info/home.aspx"}],"sourceName":"Norway","sourceType":"government","mobile":false}
{"date":{"utc":"2018-11-10T00:00:00.000Z","local":"2018-11-10T01:00:00+01:00"},"parameter":"no2","value":3.9663195406,"unit":"µg/m³","averagingPeriod":{"unit":"hours","value":1},"location":"Schancheholen","city":"Stavanger","country":"NO","coordinates":{"latitude":58.951877,"longitude":5.721875},"attribution":[{"name":"Luftkvalitet.info","url":"http://www.luftkvalitet.info/home.aspx"}],"sourceName":"Norway","sourceType":"government","mobile":false}
{"date":{"utc":"2018-11-10T00:00:00.000Z","local":"2018-11-10T05:30:00+05:30"},"parameter":"pm25","value":320.11,"unit":"µg/m³","averagingPeriod":{"unit":"hours","value":0.25},"location":"CRRI Mathura Road, New Delhi - IMD","city":"Delhi","country":"IN","coordinates":{"latitude":28.5512005,"longitude":77.2735737},"attribution":[{"name":"Central Pollution Control Board","url":"https://app.cpcbccr.com/ccr/#/caaqm-dashboard-all/caaqm-landing"}],"sourceName":"caaqm","sourceType":"government","mobile":false}
{"date":{"utc":"2018-11-10T00:00:00.000Z","local":"2018-11-10T08:00:00+08:00"},"parameter":"pm25","value":9,"unit":"µg/m³","averagingPeriod":{"value":1,"unit":"hours"},"location":"Beijing US Embassy","city":"Beijing","country":"CN","coordinates":{"latitude":39.95,"longitude":116.47},"attribution":[{"name":"StateAir.net","url":"http://www.stateair.net/web/post/1/1.html"}],"sourceName":"Beijing US Embassy","sourceType":"government","mobile":false}
{"date":{"utc":"2018-11-10T00:00:00.000Z","local":"2018-11-10T05:30:00+05:30"},"parameter":"pm10","value":350.19,"unit":"µg/m³","averagingPeriod":{"unit":"hours","value":0.25},"location":"CRRI Mathura Road, New Delhi - IMD","city":"Delhi","country":"IN","coordinates":{"latitude":28.5512005,"longitude":77.2735737},"attribution":[{"name":"Central Pollution Control Board","url":"https://app.cpcbccr.com/ccr/#/caaqm-dashboard-all/caaqm-landing"}],"sourceName":"caaqm","sourceType":"government","mobile":false}
{"date":{"utc":"2018-11-10T00:00:00.000Z","local":"2018-11-10T01:00:00+01:00"},"parameter":"pm25","value":1.8182777778,"unit":"µg/m³","averagingPeriod":{"unit":"hours","value":1},"location":"Schancheholen","city":"Stavanger","country":"NO","coordinates":{"latitude":58.951877,"longitude":5.721875},"attribution":[{"name":"Luftkvalitet.info","url":"http://www.luftkvalitet.info/home.aspx"}],"sourceName":"Norway","sourceType":"government","mobile":false}
{"date":{"utc":"2018-11-10T00:00:00.000Z","local":"2018-11-10T08:00:00+08:00"},"parameter":"pm25","value":43,"unit":"µg/m³","averagingPeriod":{"value":1,"unit":"hours"},"location":"Guangzhou","city":"Guangzhou","country":"CN","coordinates":{"latitude":23.12,"longitude":113.32},"attribution":[{"name":"StateAir.net","url":"http://www.stateair.net/web/post/1/3.html"}],"sourceName":"Guangzhou","sourceType":"government","mobile":false}
{"date":{"utc":"2018-11-09T23:30:00.000Z","local":"2018-11-10T05:00:00+05:30"},"parameter":"pm25","value":27,"unit":"µg/m³","averagingPeriod":{"value":1,"unit":"hours"},"location":"US Diplomatic Post: Colombo","city":"Colombo","country":"LK","coordinates":{"latitude":6.913253,"longitude":79.848684},"attribution":[{"name":"EPA AirNow DOS","url":"http://airnow.gov/index.cfm?action=airnow.global_summary"}],"sourceName":"StateAir_Colombo","sourceType":"government","mobile":false}
{"date":{"utc":"2018-11-10T00:00:00.000Z","local":"2018-11-10T08:00:00+08:00"},"parameter":"pm25","value":81,"unit":"µg/m³","averagingPeriod":{"value":1,"unit":"hours"},"location":"Chengdu","city":"Chengdu","country":"CN","coordinates":{"latitude":30.63,"longitude":104.07},"attribution":[{"name":"StateAir.net","url":"http://www.stateair.net/web/post/1/2.html"}],"sourceName":"Chengdu","sourceType":"government","mobile":false}
{"date":{"utc":"2018-11-10T00:00:00.000Z","local":"2018-11-10T01:00:00+01:00"},"parameter":"pm10","value":3.1842222222,"unit":"µg/m³","averagingPeriod":{"unit":"hours","value":1},"location":"Schancheholen","city":"Stavanger","country":"NO","coordinates":{"latitude":58.951877,"longitude":5.721875},"attribution":[{"name":"Luftkvalitet.info","url":"http://www.luftkvalitet.info/home.aspx"}],"sourceName":"Norway","sourceType":"government","mobile":false}
{"date":{"utc":"2018-11-10T00:00:00.000Z","local":"2018-11-10T05:30:00+05:30"},"parameter":"no2","value":9.18,"unit":"µg/m³","averagingPeriod":{"unit":"hours","value":0.25},"location":"CRRI Mathura Road, New Delhi - IMD","city":"Delhi","country":"IN","coordinates":{"latitude":28.5512005,"longitude":77.2735737},"attribution":[{"name":"Central Pollution Control Board","url":"https://app.cpcbccr.com/ccr/#/caaqm-dashboard-all/caaqm-landing"}],"sourceName":"caaqm","sourceType":"government","mobile":false}
{"date":{"utc":"2018-11-10T00:00:00.000Z","local":"2018-11-10T05:30:00+05:30"},"parameter":"co","value":4510,"unit":"µg/m³","averagingPeriod":{"unit":"hours","value":0.25},"location":"CRRI Mathura Road, New Delhi - IMD","city":"Delhi","country":"IN","coordinates":{"latitude":28.5512005,"longitude":77.2735737},"attribution":[{"name":"Central Pollution Control Board","url":"https://app.cpcbccr.com/ccr/#/caaqm-dashboard-all/caaqm-landing"}],"sourceName":"caaqm","sourceType":"government","mobile":false}
{"date":{"utc":"2018-11-10T00:00:00.000Z","local":"2018-11-10T01:00:00+01:00"},"parameter":"pm25","value":6.4205555556,"unit":"µg/m³","averagingPeriod":{"unit":"hours","value":1},"location":"Moheia Vest","city":"Mo i Rana","country":"NO","coordinates":{"latitude":66.312191,"longitude":14.149923},"attribution":[{"name":"Luftkvalitet.info","url":"http://www.luftkvalitet.info/home.aspx"}],"sourceName":"Norway","sourceType":"government","mobile":false}
{"date":{"utc":"2018-11-09T21:30:00.000Z","local":"2018-11-10T03:00:00+05:30"},"parameter":"pm25","value":285,"unit":"µg/m³","averagingPeriod":{"value":1,"unit":"hours"},"location":"US Diplomatic Post: Kolkata","city":"Kolkata","country":"IN","coordinates":{"latitude":22.56263,"longitude":88.36304},"attribution":[{"name":"EPA AirNow DOS","url":"http://airnow.gov/index.cfm?action=airnow.global_summary"}],"sourceName":"StateAir_Kolkata","sourceType":"government","mobile":false}
{"date":{"utc":"2018-11-10T00:00:00.000Z","local":"2018-11-10T05:30:00+05:30"},"parameter":"o3","value":23.72,"unit":"µg/m³","averagingPeriod":{"unit":"hours","value":0.25},"location":"CRRI Mathura Road, New Delhi - IMD","city":"Delhi","country":"IN","coordinates":{"latitude":28.5512005,"longitude":77.2735737},"attribution":[{"name":"Central Pollution Control Board","url":"https://app.cpcbccr.com/ccr/#/caaqm-dashboard-all/caaqm-landing"}],"sourceName":"caaqm","sourceType":"government","mobile":false}
{"date":{"utc":"2018-11-09T22:30:00.000Z","local":"2018-11-10T04:00:00+05:30"},"parameter":"pm25","value":232,"unit":"µg/m³","averagingPeriod":{"value":1,"unit":"hours"},"location":"US Diplomatic Post: Kolkata","city":"Kolkata","country":"IN","coordinates":{"latitude":22.56263,"longitude":88.36304},"attribution":[{"name":"EPA AirNow DOS","url":"http://airnow.gov/index.cfm?action=airnow.global_summary"}],"sourceName":"StateAir_Kolkata","sourceType":"government","mobile":false}
{"date":{"utc":"2018-11-10T00:00:00.000Z","local":"2018-11-10T01:00:00+01:00"},"parameter":"pm10","value":5.28,"unit":"µg/m³","averagingPeriod":{"unit":"hours","value":1},"location":"Rambergan","city":"Tromsø","country":"NO","coordinates":{"latitude":69.65428,"longitude":18.95636},"attribution":[{"name":"Luftkvalitet.info","url":"http://www.luftkvalitet.info/home.aspx"}],"sourceName":"Norway","sourceType":"government","mobile":false}
{"date":{"utc":"2018-11-09T23:00:00.000Z","local":"2018-11-10T07:00:00+08:00"},"parameter":"pm25","value":-999,"unit":"µg/m³","averagingPeriod":{"value":1,"unit":"hours"},"location":"US Diplomatic Post: Ulaanbaatar","city":"Ulaanbaatar","country":"MN","coordinates":{"latitude":47.928387,"longitude":106.92947},"attribution":[{"name":"EPA AirNow DOS","url":"http://airnow.gov/index.cfm?action=airnow.global_summary"}],"sourceName":"StateAir_Ulaanbaatar","sourceType":"government","mobile":false}
{"date":{"utc":"2018-11-09T23:15:00.000Z","local":"2018-11-10T05:00:00+05:45"},"parameter":"pm25","value":54,"unit":"µg/m³","averagingPeriod":{"value":1,"unit":"hours"},"location":"US Diplomatic Post: Phora Durbar Kathmandu","city":"Kathmandu","country":"NP","coordinates":{"latitude":27.712463,"longitude":85.315704},"attribution":[{"name":"EPA AirNow DOS","url":"http://airnow.gov/index.cfm?action=airnow.global_summary"}],"sourceName":"StateAir_PhoraDurbar","sourceType":"government","mobile":false}
{"date":{"utc":"2018-11-09T23:30:00.000Z","local":"2018-11-10T05:00:00+05:30"},"parameter":"pm25","value":344,"unit":"µg/m³","averagingPeriod":{"value":1,"unit":"hours"},"location":"US Diplomatic Post: Mumbai","city":"Mumbai","country":"IN","coordinates":{"latitude":19.07283,"longitude":72.88261},"attribution":[{"name":"EPA AirNow DOS","url":"http://airnow.gov/index.cfm?action=airnow.global_summary"}],"sourceName":"StateAir_Mumbai","sourceType":"government","mobile":false}
{"date":{"utc":"2018-11-09T23:30:00.000Z","local":"2018-11-10T05:00:00+05:30"},"parameter":"pm25","value":152,"unit":"µg/m³","averagingPeriod":{"value":1,"unit":"hours"},"location":"US Diplomatic Post: Kolkata","city":"Kolkata","country":"IN","coordinates":{"latitude":22.56263,"longitude":88.36304},"attribution":[{"name":"EPA AirNow DOS","url":"http://airnow.gov/index.cfm?action=airnow.global_summary"}],"sourceName":"StateAir_Kolkata","sourceType":"government","mobile":false}
{"date":{"utc":"2018-11-10T00:00:00.000Z","local":"2018-11-10T01:00:00+01:00"},"parameter":"no2","value":2.888823654,"unit":"µg/m³","averagingPeriod":{"unit":"hours","value":1},"location":"Ringsakervegen","city":"Brumunddal","country":"NO","coordinates":{"latitude":60.88593,"longitude":10.93785},"attribution":[{"name":"Luftkvalitet.info","url":"http://www.luftkvalitet.info/home.aspx"}],"sourceName":"Norway","sourceType":"government","mobile":false}
{"date":{"utc":"2018-11-10T00:00:00.000Z","local":"2018-11-10T01:00:00+01:00"},"parameter":"pm25","value":3.774325,"unit":"µg/m³","averagingPeriod":{"unit":"hours","value":1},"location":"Nedre Langgate","city":"Tønsberg","country":"NO","coordinates":{"latitude":59.263725,"longitude":10.411165},"attribution":[{"name":"Luftkvalitet.info","url":"http://www.luftkvalitet.info/home.aspx"}],"sourceName":"Norway","sourceType":"government","mobile":false}
{"date":{"utc":"2018-11-09T22:00:00.000Z","local":"2018-11-10T05:00:00+07:00"},"parameter":"co","value":1,"unit":"ppm","averagingPeriod":{"value":1,"unit":"hours"},"location":"Tha Pradu, Mueng","city":"Rayong","country":"TH","coordinates":{"longitude":101.27357778829,"latitude":12.680918537711},"attribution":[{"name":"Pollution Control Department","url":"http://www.aqmthai.com/index.php"}],"sourceName":"Thailand","sourceType":"government","mobile":false}
{"date":{"utc":"2018-11-09T23:45:00.000Z","local":"2018-11-10T05:15:00+05:30"},"parameter":"pm25","value":311,"unit":"µg/m³","averagingPeriod":{"unit":"hours","value":0.25},"location":"DTU, New Delhi - CPCB","city":"Delhi","country":"IN","coordinates":{"latitude":28.7500499,"longitude":77.1112615},"attribution":[{"name":"Central Pollution Control Board","url":"https://app.cpcbccr.com/ccr/#/caaqm-dashboard-all/caaqm-landing"}],"sourceName":"caaqm","sourceType":"government","mobile":false}
{"date":{"utc":"2018-11-10T00:00:00.000Z","local":"2018-11-10T01:00:00+01:00"},"parameter":"pm10","value":4.8885305556,"unit":"µg/m³","averagingPeriod":{"unit":"hours","value":1},"location":"Nedre Langgate","city":"Tønsberg","country":"NO","coordinates":{"latitude":59.263725,"longitude":10.411165},"attribution":[{"name":"Luftkvalitet.info","url":"http://www.luftkvalitet.info/home.aspx"}],"sourceName":"Norway","sourceType":"government","mobile":false}
{"date":{"utc":"2018-11-09T22:00:00.000Z","local":"2018-11-10T05:00:00+07:00"},"parameter":"pm10","value":31,"unit":"µg/m³","averagingPeriod":{"value":24,"unit":"hours"},"location":"Tha Pradu, Mueng","city":"Rayong","country":"TH","coordinates":{"longitude":101.27357778829,"latitude":12.680918537711},"attribution":[{"name":"Pollution Control Department","url":"http://www.aqmthai.com/index.php"}],"sourceName":"Thailand","sourceType":"government","mobile":false}
{"date":{"utc":"2018-11-09T23:45:00.000Z","local":"2018-11-10T05:15:00+05:30"},"parameter":"pm10","value":480,"unit":"µg/m³","averagingPeriod":{"unit":"hours","value":0.25},"location":"DTU, New Delhi - CPCB","city":"Delhi","country":"IN","coordinates":{"latitude":28.7500499,"longitude":77.1112615},"attribution":[{"name":"Central Pollution Control Board","url":"https://app.cpcbccr.com/ccr/#/caaqm-dashboard-all/caaqm-landing"}],"sourceName":"caaqm","sourceType":"government","mobile":false}
{"date":{"utc":"2018-11-10T00:00:00.000Z","local":"2018-11-10T01:00:00+01:00"},"parameter":"pm25","value":6.0591666667,"unit":"µg/m³","averagingPeriod":{"unit":"hours","value":1},"location":"E6 Alna senter","city":"Oslo","country":"NO","coordinates":{"latitude":59.92556,"longitude":10.850367},"attribution":[{"name":"Luftkvalitet.info","url":"http://www.luftkvalitet.info/home.aspx"}],"sourceName":"Norway","sourceType":"government","mobile":false}
{"date":{"utc":"2018-11-09T23:45:00.000Z","local":"2018-11-10T05:15:00+05:30"},"parameter":"no2","value":38.2,"unit":"µg/m³","averagingPeriod":{"unit":"hours","value":0.25},"location":"DTU, New Delhi - CPCB","city":"Delhi","country":"IN","coordinates":{"latitude":28.7500499,"longitude":77.1112615},"attribution":[{"name":"Central Pollution Control Board","url":"https://app.cpcbccr.com/ccr/#/caaqm-dashboard-all/caaqm-landing"}],"sourceName":"caaqm","sourceType":"government","mobile":false}
{"date":{"utc":"2018-11-10T00:00:00.000Z","local":"2018-11-10T01:00:00+01:00"},"parameter":"pm10","value":7.3041111111,"unit":"µg/m³","averagingPeriod":{"unit":"hours","value":1},"location":"E6 Alna senter","city":"Oslo","country":"NO","coordinates":{"latitude":59.92556,"longitude":10.850367},"attribution":[{"name":"Luftkvalitet.info","url":"http://www.luftkvalitet.info/home.aspx"}],"sourceName":"Norway","sourceType":"government","mobile":false}
{"date":{"utc":"2018-11-09T23:45:00.000Z","local":"2018-11-10T05:15:00+05:30"},"parameter":"so2","value":5.7,"unit":"µg/m³","averagingPeriod":{"unit":"hours","value":0.25},"location":"DTU, New Delhi - CPCB","city":"Delhi","country":"IN","coordinates":{"latitude":28.7500499,"longitude":77.1112615},"attribution":[{"name":"Central Pollution Control Board","url":"https://app.cpcbccr.com/ccr/#/caaqm-dashboard-all/caaqm-landing"}],"sourceName":"caaqm","sourceType":"government","mobile":false}
{"date":{"utc":"2018-11-10T00:00:00.000Z","local":"2018-11-10T01:00:00+01:00"},"parameter":"no2","value":21.986413622,"unit":"µg/m³","averagingPeriod":{"unit":"hours","value":1},"location":"E6 Alna senter","city":"Oslo","country":"NO","coordinates":{"latitude":59.92556,"longitude":10.850367},"attribution":[{"name":"Luftkvalitet.info","url":"http://www.luftkvalitet.info/home.aspx"}],"sourceName":"Norway","sourceType":"government","mobile":false}
{"date":{"utc":"2018-11-09T22:00:00.000Z","local":"2018-11-10T05:00:00+07:00"},"parameter":"pm10","value":31,"unit":"µg/m³","averagingPeriod":{"value":24,"unit":"hours"},"location":"Thung Sukhla, Si Racha","city":"Chon Buri","country":"TH","coordinates":{"longitude":100.91849922412,"latitude":13.119234177302},"attribution":[{"name":"Pollution Control Department","url":"http://www.aqmthai.com/index.php"}],"sourceName":"Thailand","sourceType":"government","mobile":false}
{"date":{"utc":"2018-11-09T23:45:00.000Z","local":"2018-11-10T05:15:00+05:30"},"parameter":"co","value":2770,"unit":"µg/m³","averagingPeriod":{"unit":"hours","value":0.25},"location":"DTU, New Delhi - CPCB","city":"Delhi","country":"IN","coordinates":{"latitude":28.7500499,"longitude":77.1112615},"attribution":[{"name":"Central Pollution Control Board","url":"https://app.cpcbccr.com/ccr/#/caaqm-dashboard-all/caaqm-landing"}],"sourceName":"caaqm","sourceType":"government","mobile":false}
{"date":{"utc":"2018-11-10T00:00:00.000Z","local":"2018-11-10T01:00:00+01:00"},"parameter":"pm25","value":1.5941666667,"unit":"µg/m³","averagingPeriod":{"unit":"hours","value":1},"location":"Olav V gate","city":"Bodø","country":"NO","coordinates":{"latitude":67.275501,"longitude":14.419057},"attribution":[{"name":"Luftkvalitet.info","url":"http://www.luftkvalitet.info/home.aspx"}],"sourceName":"Norway","sourceType":"government","mobile":false}
{"date":{"utc":"2018-11-09T23:45:00.000Z","local":"2018-11-10T05:15:00+05:30"},"parameter":"o3","value":33.7,"unit":"µg/m³","averagingPeriod":{"unit":"hours","value":0.25},"location":"DTU, New Delhi - CPCB","city":"Delhi","country":"IN","coordinates":{"latitude":28.7500499,"longitude":77.1112615},"attribution":[{"name":"Central Pollution Control Board","url":"https://app.cpcbccr.com/ccr/#/caaqm-dashboard-all/caaqm-landing"}],"sourceName":"caaqm","sourceType":"government","mobile":false}
{"date":{"utc":"2018-11-10T00:00:00.000Z","local":"2018-11-10T01:00:00+01:00"},"parameter":"pm10","value":1.6294444444,"unit":"µg/m³","averagingPeriod":{"unit":"hours","value":1},"location":"Olav V gate","city":"Bodø","country":"NO","coordinates":{"latitude":67.275501,"longitude":14.419057},"attribution":[{"name":"Luftkvalitet.info","url":"http://www.luftkvalitet.info/home.aspx"}],"sourceName":"Norway","sourceType":"government","mobile":false}
{"date":{"utc":"2018-11-09T23:45:00.000Z","local":"2018-11-10T05:15:00+05:30"},"parameter":"pm25","value":311,"unit":"µg/m³","averagingPeriod":{"unit":"hours","value":0.25},"location":"Sector - 125, Noida, UP - UPPCB","city":"Noida","country":"IN","coordinates":{"latitude":28.5447608,"longitude":77.3231257},"attribution":[{"name":"Central Pollution Control Board","url":"https://app.cpcbccr.com/ccr/#/caaqm-dashboard-all/caaqm-landing"}],"sourceName":"caaqm","sourceType":"government","mobile":false}
{"date":{"utc":"2018-11-10T00:00:00.000Z","local":"2018-11-10T01:00:00+01:00"},"parameter":"no2","value":13.1566690465,"unit":"µg/m³","averagingPeriod":{"unit":"hours","value":1},"location":"Seljestad Rv83","city":"Harstad","country":"NO","coordinates":{"latitude":68.79222701,"longitude":16.53742346},"attribution":[{"name":"Luftkvalitet.info","url":"http://www.luftkvalitet.info/home.aspx"}],"sourceName":"Norway","sourceType":"government","mobile":false}
{"date":{"utc":"2018-11-09T23:45:00.000Z","local":"2018-11-10T05:15:00+05:30"},"parameter":"pm10","value":472,"unit":"µg/m³","averagingPeriod":{"unit":"hours","value":0.25},"location":"Sector - 125, Noida, UP - UPPCB","city":"Noida","country":"IN","coordinates":{"latitude":28.5447608,"longitude":77.3231257},"attribution":[{"name":"Central Pollution Control Board","url":"https://app.cpcbccr.com/ccr/#/caaqm-dashboard-all/caaqm-landing"}],"sourceName":"caaqm","sourceType":"government","mobile":false}
{"date":{"utc":"2018-11-10T00:00:00.000Z","local":"2018-11-10T01:00:00+01:00"},"parameter":"pm25","value":5.5806685237,"unit":"µg/m³","averagingPeriod":{"unit":"hours","value":1},"location":"Seljestad Rv83","city":"Harstad","country":"NO","coordinates":{"latitude":68.79222701,"longitude":16.53742346},"attribution":[{"name":"Luftkvalitet.info","url":"http://www.luftkvalitet.info/home.aspx"}],"sourceName":"Norway","sourceType":"government","mobile":false}
{"date":{"utc":"2018-11-09T23:45:00.000Z","local":"2018-11-10T05:15:00+05:30"},"parameter":"no2","value":82.6,"unit":"µg/m³","averagingPeriod":{"unit":"hours","value":0.25},"location":"Sector - 125, Noida, UP - UPPCB","city":"Noida","country":"IN","coordinates":{"latitude":28.5447608,"longitude":77.3231257},"attribution":[{"name":"Central Pollution Control Board","url":"https://app.cpcbccr.com/ccr/#/caaqm-dashboard-all/caaqm-landing"}],"sourceName":"caaqm","sourceType":"government","mobile":false}
{"date":{"utc":"2018-11-10T00:00:00.000Z","local":"2018-11-10T01:00:00+01:00"},"parameter":"pm10","value":6.0408077994,"unit":"µg/m³","averagingPeriod":{"unit":"hours","value":1},"location":"Seljestad Rv83","city":"Harstad","country":"NO","coordinates":{"latitude":68.79222701,"longitude":16.53742346},"attribution":[{"name":"Luftkvalitet.info","url":"http://www.luftkvalitet.info/home.aspx"}],"sourceName":"Norway","sourceType":"government","mobile":false}
{"date":{"utc":"2018-11-09T23:45:00.000Z","local":"2018-11-10T05:15:00+05:30"},"parameter":"so2","value":14.5,"unit":"µg/m³","averagingPeriod":{"unit":"hours","value":0.25},"location":"Sector - 125, Noida, UP - UPPCB","city":"Noida","country":"IN","coordinates":{"latitude":28.5447608,"longitude":77.3231257},"attribution":[{"name":"Central Pollution Control Board","url":"https://app.cpcbccr.com/ccr/#/caaqm-dashboard-all/caaqm-landing"}],"sourceName":"caaqm","sourceType":"government","mobile":false}
{"date":{"utc":"2018-11-09T22:00:00.000Z","local":"2018-11-10T05:00:00+07:00"},"parameter":"co","value":0.51,"unit":"ppm","averagingPeriod":{"value":1,"unit":"hours"},"location":"Sop Pat, Mae Mo","city":"Lampang","country":"TH","coordinates":{"longitude":99.766891808156,"latitude":18.247769049494},"attribution":[{"name":"Pollution Control Department","url":"http://www.aqmthai.com/index.php"}],"sourceName":"Thailand","sourceType":"government","mobile":false}
{"date":{"utc":"2018-11-10T00:00:00.000Z","local":"2018-11-10T01:00:00+01:00"},"parameter":"pm25","value":2.8046916667,"unit":"µg/m³","averagingPeriod":{"unit":"hours","value":1},"location":"Nygaardsgata","city":"Fredrikstad","country":"NO","coordinates":{"latitude":59.210191,"longitude":10.940097},"attribution":[{"name":"Luftkvalitet.info","url":"http://www.luftkvalitet.info/home.aspx"}],"sourceName":"Norway","sourceType":"government","mobile":false}
{"date":{"utc":"2018-11-09T22:00:00.000Z","local":"2018-11-10T05:00:00+07:00"},"parameter":"pm10","value":12,"unit":"µg/m³","averagingPeriod":{"value":24,"unit":"hours"},"location":"Sop Pat, Mae Mo","city":"Lampang","country":"TH","coordinates":{"longitude":99.766891808156,"latitude":18.247769049494},"attribution":[{"name":"Pollution Control Department","url":"http://www.aqmthai.com/index.php"}],"sourceName":"Thailand","sourceType":"government","mobile":false}
{"date":{"utc":"2018-11-09T23:45:00.000Z","local":"2018-11-10T05:15:00+05:30"},"parameter":"co","value":6190,"unit":"µg/m³","averagingPeriod":{"unit":"hours","value":0.25},"location":"Sector - 125, Noida, UP - UPPCB","city":"Noida","country":"IN","coordinates":{"latitude":28.5447608,"longitude":77.3231257},"attribution":[{"name":"Central Pollution Control Board","url":"https://app.cpcbccr.com/ccr/#/caaqm-dashboard-all/caaqm-landing"}],"sourceName":"caaqm","sourceType":"government","mobile":false}
{"date":{"utc":"2018-11-10T00:00:00.000Z","local":"2018-11-10T01:00:00+01:00"},"parameter":"no2","value":21.786716584,"unit":"µg/m³","averagingPeriod":{"unit":"hours","value":1},"location":"Moheia Vest","city":"Mo i Rana","country":"NO","coordinates":{"latitude":66.312191,"longitude":14.149923},"attribution":[{"name":"Luftkvalitet.info","url":"http://www.luftkvalitet.info/home.aspx"}],"sourceName":"Norway","sourceType":"government","mobile":false}
{"date":{"utc":"2018-11-09T23:45:00.000Z","local":"2018-11-10T05:15:00+05:30"},"parameter":"o3","value":10.4,"unit":"µg/m³","averagingPeriod":{"unit":"hours","value":0.25},"location":"Sector - 125, Noida, UP - UPPCB","city":"Noida","country":"IN","coordinates":{"latitude":28.5447608,"longitude":77.3231257},"attribution":[{"name":"Central Pollution Control Board","url":"https://app.cpcbccr.com/ccr/#/caaqm-dashboard-all/caaqm-landing"}],"sourceName":"caaqm","sourceType":"government","mobile":false}
{"date":{"utc":"2018-11-09T23:00:00.000Z","local":"2018-11-10T06:00:00+07:00"},"parameter":"pm10","value":31,"unit":"µg/m³","averagingPeriod":{"value":24,"unit":"hours"},"location":"Mae Mo, Mae Mo","city":"Lampang","country":"TH","coordinates":{"longitude":99.663144703624,"latitude":18.279680637193},"attribution":[{"name":"Pollution Control Department","url":"http://www.aqmthai.com/index.php"}],"sourceName":"Thailand","sourceType":"government","mobile":false}
{"date":{"utc":"2018-11-10T00:00:00.000Z","local":"2018-11-10T01:00:00+01:00"},"parameter":"pm10","value":9.6977222222,"unit":"µg/m³","averagingPeriod":{"unit":"hours","value":1},"location":"Moheia Vest","city":"Mo i Rana","country":"NO","coordinates":{"latitude":66.312191,"longitude":14.149923},"attribution":[{"name":"Luftkvalitet.info","url":"http://www.luftkvalitet.info/home.aspx"}],"sourceName":"Norway","sourceType":"government","mobile":false}
{"date":{"utc":"2018-11-10T00:00:00.000Z","local":"2018-11-10T01:00:00+01:00"},"parameter":"no2","value":4.3881916071,"unit":"µg/m³","averagingPeriod":{"unit":"hours","value":1},"location":"Olav V gate","city":"Bodø","country":"NO","coordinates":{"latitude":67.275501,"longitude":14.419057},"attribution":[{"name":"Luftkvalitet.info","url":"http://www.luftkvalitet.info/home.aspx"}],"sourceName":"Norway","sourceType":"government","mobile":false}
{"date":{"utc":"2018-11-09T23:00:00.000Z","local":"2018-11-09T20:00:00-03:00"},"parameter":"pm25","value":9,"unit":"µg/m³","location":"La Serena","city":"Coquimbo","country":"CL","coordinates":{"latitude":-29.933006518748,"longitude":-71.261966365967},"attribution":[{"name":"SINCA","url":"http://sinca.mma.gob.cl/"},{"name":"Ministerio del Medio Ambiente"}],"sourceName":"Chile - SINCA","sourceType":"government","mobile":false}
{"date":{"utc":"2018-11-09T23:45:00.000Z","local":"2018-11-10T05:15:00+05:30"},"parameter":"pm25","value":232.57,"unit":"µg/m³","averagingPeriod":{"unit":"hours","value":0.25},"location":"North Campus, DU, New Delhi - IMD","city":"Delhi","country":"IN","coordinates":{"latitude":28.6573814,"longitude":77.1585447},"attribution":[{"name":"Central Pollution Control Board","url":"https://app.cpcbccr.com/ccr/#/caaqm-dashboard-all/caaqm-landing"}],"sourceName":"caaqm","sourceType":"government","mobile":false}
{"date":{"utc":"2018-11-10T00:00:00.000Z","local":"2018-11-10T01:00:00+01:00"},"parameter":"pm25","value":6.0983333333,"unit":"µg/m³","averagingPeriod":{"unit":"hours","value":1},"location":"Solheim","city":"Lørenskog","country":"NO","coordinates":{"latitude":59.928612,"longitude":10.953203},"attribution":[{"name":"Luftkvalitet.info","url":"http://www.luftkvalitet.info/home.aspx"}],"sourceName":"Norway","sourceType":"government","mobile":false}
{"date":{"utc":"2018-11-09T23:45:00.000Z","local":"2018-11-10T05:15:00+05:30"},"parameter":"pm10","value":297.71,"unit":"µg/m³","averagingPeriod":{"unit":"hours","value":0.25},"location":"North Campus, DU, New Delhi - IMD","city":"Delhi","country":"IN","coordinates":{"latitude":28.6573814,"longitude":77.1585447},"attribution":[{"name":"Central Pollution Control Board","url":"https://app.cpcbccr.com/ccr/#/caaqm-dashboard-all/caaqm-landing"}],"sourceName":"caaqm","sourceType":"government","mobile":false}
{"date":{"utc":"2018-11-10T00:00:00.000Z","local":"2018-11-10T01:00:00+01:00"},"parameter":"pm10","value":7.04425,"unit":"µg/m³","averagingPeriod":{"unit":"hours","value":1},"location":"Solheim","city":"Lørenskog","country":"NO","coordinates":{"latitude":59.928612,"longitude":10.953203},"attribution":[{"name":"Luftkvalitet.info","url":"http://www.luftkvalitet.info/home.aspx"}],"sourceName":"Norway","sourceType":"government","mobile":false}
{"date":{"utc":"2018-11-09T22:00:00.000Z","local":"2018-11-09T19:00:00-03:00"},"parameter":"pm10","value":19.24,"unit":"µg/m³","location":"La Greda","city":"Puchuncaví","country":"CL","coordinates":{"latitude":-32.748154,"longitude":-71.474204},"attribution":[{"name":"SINCA","url":"http://sinca.mma.gob.cl/"},{"name":"CODELCO División Ventanas y AES Gener"}],"sourceName":"Chile - SINCA","sourceType":"government","mobile":false}
{"date":{"utc":"2018-11-09T22:00:00.000Z","local":"2018-11-10T05:00:00+07:00"},"parameter":"co","value":0.55,"unit":"ppm","averagingPeriod":{"value":1,"unit":"hours"},"location":"Nai Mueang, Mueang","city":"Nakhon Ratchasima","country":"TH","coordinates":{"longitude":102.10219652705,"latitude":14.976785802969},"attribution":[{"name":"Pollution Control Department","url":"http://www.aqmthai.com/index.php"}],"sourceName":"Thailand","sourceType":"government","mobile":false}
{"date":{"utc":"2018-11-09T23:45:00.000Z","local":"2018-11-10T05:15:00+05:30"},"parameter":"no2","value":37.67,"unit":"µg/m³","averagingPeriod":{"unit":"hours","value":0.25},"location":"North Campus, DU, New Delhi - IMD","city":"Delhi","country":"IN","coordinates":{"latitude":28.6573814,"longitude":77.1585447},"attribution":[{"name":"Central Pollution Control Board","url":"https://app.cpcbccr.com/ccr/#/caaqm-dashboard-all/caaqm-landing"}],"sourceName":"caaqm","sourceType":"government","mobile":false}
{"date":{"utc":"2018-11-09T22:00:00.000Z","local":"2018-11-09T19:00:00-03:00"},"parameter":"o3","value":19.92,"unit":"µg/m³","location":"La Greda","city":"Puchuncaví","country":"CL","coordinates":{"latitude":-32.748154,"longitude":-71.474204},"attribution":[{"name":"SINCA","url":"http://sinca.mma.gob.cl/"},{"name":"CODELCO División Ventanas y AES Gener"}],"sourceName":"Chile - SINCA","sourceType":"government","mobile":false}
{"date":{"utc":"2018-11-10T00:00:00.000Z","local":"2018-11-10T01:00:00+01:00"},"parameter":"pm25","value":7.8,"unit":"µg/m³","averagingPeriod":{"unit":"hours","value":1},"location":"Alvim","city":"Sarpsborg","country":"NO","coordinates":{"latitude":59.27377544,"longitude":11.08919017},"attribution":[{"name":"Luftkvalitet.info","url":"http://www.luftkvalitet.info/home.aspx"}],"sourceName":"Norway","sourceType":"government","mobile":false}
{"date":{"utc":"2018-11-09T22:00:00.000Z","local":"2018-11-10T05:00:00+07:00"},"parameter":"pm10","value":44,"unit":"µg/m³","averagingPeriod":{"value":24,"unit":"hours"},"location":"Nai Mueang, Mueang","city":"Nakhon Ratchasima","country":"TH","coordinates":{"longitude":102.10219652705,"latitude":14.976785802969},"attribution":[{"name":"Pollution Control Department","url":"http://www.aqmthai.com/index.php"}],"sourceName":"Thailand","sourceType":"government","mobile":false}
{"date":{"utc":"2018-11-09T23:45:00.000Z","local":"2018-11-10T05:15:00+05:30"},"parameter":"co","value":3160,"unit":"µg/m³","averagingPeriod":{"unit":"hours","value":0.25},"location":"North Campus, DU, New Delhi - IMD","city":"Delhi","country":"IN","coordinates":{"latitude":28.6573814,"longitude":77.1585447},"attribution":[{"name":"Central Pollution Control Board","url":"https://app.cpcbccr.com/ccr/#/caaqm-dashboard-all/caaqm-landing"}],"sourceName":"caaqm","sourceType":"government","mobile":false}
{"date":{"utc":"2018-11-09T23:00:00.000Z","local":"2018-11-10T06:00:00+07:00"},"parameter":"co","value":1.45,"unit":"ppm","averagingPeriod":{"value":1,"unit":"hours"},"location":"Rama IV Rd., Pathum Wan","city":"Bangkok","country":"TH","coordinates":{"longitude":100.53649416504,"latitude":13.729830133162},"attribution":[{"name":"Pollution Control Department","url":"http://www.aqmthai.com/index.php"}],"sourceName":"Thailand","sourceType":"government","mobile":false}
{"date":{"utc":"2018-11-10T00:00:00.000Z","local":"2018-11-10T01:00:00+01:00"},"parameter":"no2","value":4.9063141101,"unit":"µg/m³","averagingPeriod":{"unit":"hours","value":1},"location":"Rolland, Åsane","city":"Bergen","country":"NO","coordinates":{"latitude":60.462665,"longitude":5.332447},"attribution":[{"name":"Luftkvalitet.info","url":"http://www.luftkvalitet.info/home.aspx"}],"sourceName":"Norway","sourceType":"government","mobile":false}
{"date":{"utc":"2018-11-09T22:00:00.000Z","local":"2018-11-09T19:00:00-03:00"},"parameter":"no2","value":9.24,"unit":"µg/m³","location":"La Greda","city":"Puchuncaví","country":"CL","coordinates":{"latitude":-32.748154,"longitude":-71.474204},"attribution":[{"name":"SINCA","url":"http://sinca.mma.gob.cl/"},{"name":"CODELCO División Ventanas y AES Gener"}],"sourceName":"Chile - SINCA","sourceType":"government","mobile":false}
{"date":{"utc":"2018-11-09T23:45:00.000Z","local":"2018-11-10T05:15:00+05:30"},"parameter":"o3","value":19.55,"unit":"µg/m³","averagingPeriod":{"unit":"hours","value":0.25},"location":"North Campus, DU, New Delhi - IMD","city":"Delhi","country":"IN","coordinates":{"latitude":28.6573814,"longitude":77.1585447},"attribution":[{"name":"Central Pollution Control Board","url":"https://app.cpcbccr.com/ccr/#/caaqm-dashboard-all/caaqm-landing"}],"sourceName":"caaqm","sourceType":"government","mobile":false}
{"date":{"utc":"2018-11-09T23:00:00.000Z","local":"2018-11-10T06:00:00+07:00"},"parameter":"pm10","value":45,"unit":"µg/m³","averagingPeriod":{"value":24,"unit":"hours"},"location":"Rama IV Rd., Pathum Wan","city":"Bangkok","country":"TH","coordinates":{"longitude":100.53649416504,"latitude":13.729830133162},"attribution":[{"name":"Pollution Control Department","url":"http://www.aqmthai.com/index.php"}],"sourceName":"Thailand","sourceType":"government","mobile":false}
{"date":{"utc":"2018-11-10T00:00:00.000Z","local":"2018-11-10T01:00:00+01:00"},"parameter":"no2","value":13.081817926,"unit":"µg/m³","averagingPeriod":{"unit":"hours","value":1},"location":"Eilif Dues vei","city":"Bærum","country":"NO","coordinates":{"latitude":59.90608,"longitude":10.61195},"attribution":[{"name":"Luftkvalitet.info","url":"http://www.luftkvalitet.info/home.aspx"}],"sourceName":"Norway","sourceType":"government","mobile":false}
{"date":{"utc":"2018-11-09T22:00:00.000Z","local":"2018-11-09T19:00:00-03:00"},"parameter":"so2","value":6.86,"unit":"µg/m³","location":"La Greda","city":"Puchuncaví","country":"CL","coordinates":{"latitude":-32.748154,"longitude":-71.474204},"attribution":[{"name":"SINCA","url":"http://sinca.mma.gob.cl/"},{"name":"CODELCO División Ventanas y AES Gener"}],"sourceName":"Chile - SINCA","sourceType":"government","mobile":false}
{"date":{"utc":"2018-11-10T00:00:00.000Z","local":"2018-11-10T01:00:00+01:00"},"parameter":"pm10","value":18.2157670833,"unit":"µg/m³","averagingPeriod":{"unit":"hours","value":1},"location":"Minnesundvegen, Gjøvik","city":"Gjøvik","country":"NO","coordinates":{"latitude":60.79089,"longitude":10.6967},"attribution":[{"name":"Luftkvalitet.info","url":"http://www.luftkvalitet.info/home.aspx"}],"sourceName":"Norway","sourceType":"government","mobile":false}
{"date":{"utc":"2018-11-09T22:00:00.000Z","local":"2018-11-09T19:00:00-03:00"},"parameter":"pm10","value":11.93,"unit":"µg/m³","location":"Los Maitenes","city":"Puchuncaví","country":"CL","coordinates":{"latitude":-32.764139,"longitude":-71.454494},"attribution":[{"name":"SINCA","url":"http://sinca.mma.gob.cl/"},{"name":"CODELCO División Ventanas y AES Gener"}],"sourceName":"Chile - SINCA","sourceType":"government","mobile":false}
{"date":{"utc":"2018-11-09T22:00:00.000Z","local":"2018-11-09T19:00:00-03:00"},"parameter":"o3","value":23.2,"unit":"µg/m³","location":"Los Maitenes","city":"Puchuncaví","country":"CL","coordinates":{"latitude":-32.764139,"longitude":-71.454494},"attribution":[{"name":"SINCA","url":"http://sinca.mma.gob.cl/"},{"name":"CODELCO División Ventanas y AES Gener"}],"sourceName":"Chile - SINCA","sourceType":"government","mobile":false}
{"date":{"utc":"2018-11-10T00:00:00.000Z","local":"2018-11-10T01:00:00+01:00"},"parameter":"no2","value":39.7914686887,"unit":"µg/m³","averagingPeriod":{"unit":"hours","value":1},"location":"E6-Tiller","city":"Trondheim","country":"NO","coordinates":{"latitude":63.3576,"longitude":10.3719},"attribution":[{"name":"Luftkvalitet.info","url":"http://www.luftkvalitet.info/home.aspx"}],"sourceName":"Norway","sourceType":"government","mobile":false}
{"date":{"utc":"2018-11-09T23:00:00.000Z","local":"2018-11-10T06:00:00+07:00"},"parameter":"co","value":1.7,"unit":"ppm","averagingPeriod":{"value":1,"unit":"hours"},"location":"Lat Phrao Rd., Wang Thonglang","city":"Bangkok","country":"TH","coordinates":{"longitude":100.59607755884,"latitude":13.79263500923},"attribution":[{"name":"Pollution Control Department","url":"http://www.aqmthai.com/index.php"}],"sourceName":"Thailand","sourceType":"government","mobile":false}
{"date":{"utc":"2018-11-10T00:00:00.000Z","local":"2018-11-10T01:00:00+01:00"},"parameter":"o3","value":0.0072222222,"unit":"µg/m³","averagingPeriod":{"unit":"hours","value":1},"location":"Klosterhaugen","city":"Bergen","country":"NO","coordinates":{"latitude":60.395929,"longitude":5.312674},"attribution":[{"name":"Luftkvalitet.info","url":"http://www.luftkvalitet.info/home.aspx"}],"sourceName":"Norway","sourceType":"government","mobile":false}
{"date":{"utc":"2018-11-09T23:00:00.000Z","local":"2018-11-10T06:00:00+07:00"},"parameter":"pm10","value":76,"unit":"µg/m³","averagingPeriod":{"value":24,"unit":"hours"},"location":"Lat Phrao Rd., Wang Thonglang","city":"Bangkok","country":"TH","coordinates":{"longitude":100.59607755884,"latitude":13.79263500923},"attribution":[{"name":"Pollution Control Department","url":"http://www.aqmthai.com/index.php"}],"sourceName":"Thailand","sourceType":"government","mobile":false}
{"date":{"utc":"2018-11-09T22:00:00.000Z","local":"2018-11-09T19:00:00-03:00"},"parameter":"co","value":116.1,"unit":"µg/m³","location":"Los Maitenes","city":"Puchuncaví","country":"CL","coordinates":{"latitude":-32.764139,"longitude":-71.454494},"attribution":[{"name":"SINCA","url":"http://sinca.mma.gob.cl/"},{"name":"CODELCO División Ventanas y AES Gener"}],"sourceName":"Chile - SINCA","sourceType":"government","mobile":false}
{"date":{"utc":"2018-11-10T00:00:00.000Z","local":"2018-11-10T01:00:00+01:00"},"parameter":"no2","value":55.4636136598,"unit":"µg/m³","averagingPeriod":{"unit":"hours","value":1},"location":"Klosterhaugen","city":"Bergen","country":"NO","coordinates":{"latitude":60.395929,"longitude":5.312674},"attribution":[{"name":"Luftkvalitet.info","url":"http://www.luftkvalitet.info/home.aspx"}],"sourceName":"Norway","sourceType":"government","mobile":false}
{"date":{"utc":"2018-11-09T22:00:00.000Z","local":"2018-11-09T19:00:00-03:00"},"parameter":"no2","value":5.23,"unit":"µg/m³","location":"Los Maitenes","city":"Puchuncaví","country":"CL","coordinates":{"latitude":-32.764139,"longitude":-71.454494},"attribution":[{"name":"SINCA","url":"http://sinca.mma.gob.cl/"},{"name":"CODELCO División Ventanas y AES Gener"}],"sourceName":"Chile - SINCA","sourceType":"government","mobile":false}
{"date":{"utc":"2018-11-10T00:00:00.000Z","local":"2018-11-10T01:00:00+01:00"},"parameter":"pm25","value":7.6880083333,"unit":"µg/m³","averagingPeriod":{"unit":"hours","value":1},"location":"Klosterhaugen","city":"Bergen","country":"NO","coordinates":{"latitude":60.395929,"longitude":5.312674},"attribution":[{"name":"Luftkvalitet.info","url":"http://www.luftkvalitet.info/home.aspx"}],"sourceName":"Norway","sourceType":"government","mobile":false}
{"date":{"utc":"2018-11-09T22:00:00.000Z","local":"2018-11-09T19:00:00-03:00"},"parameter":"so2","value":4.4,"unit":"µg/m³","location":"Los Maitenes","city":"Puchuncaví","country":"CL","coordinates":{"latitude":-32.764139,"longitude":-71.454494},"attribution":[{"name":"SINCA","url":"http://sinca.mma.gob.cl/"},{"name":"CODELCO División Ventanas y AES Gener"}],"sourceName":"Chile - SINCA","sourceType":"government","mobile":false}
{"date":{"utc":"2018-11-10T00:00:00.000Z","local":"2018-11-10T01:00:00+01:00"},"parameter":"no2","value":4.9356980775,"unit":"µg/m³","averagingPeriod":{"unit":"hours","value":1},"location":"Kransen","city":"Moss","country":"NO","coordinates":{"latitude":59.433471,"longitude":10.66176236},"attribution":[{"name":"Luftkvalitet.info","url":"http://www.luftkvalitet.info/home.aspx"}],"sourceName":"Norway","sourceType":"government","mobile":false}
{"date":{"utc":"2018-11-09T22:00:00.000Z","local":"2018-11-09T19:00:00-03:00"},"parameter":"o3","value":16.9,"unit":"µg/m³","location":"Puchuncaví","city":"Puchuncaví","country":"CL","coordinates":{"latitude":-32.718839486418,"longitude":-71.407960598881},"attribution":[{"name":"SINCA","url":"http://sinca.mma.gob.cl/"},{"name":"CODELCO División Ventanas y AES Gener"}],"sourceName":"Chile - SINCA","sourceType":"government","mobile":false}
{"date":{"utc":"2018-11-10T00:00:00.000Z","local":"2018-11-10T01:00:00+01:00"},"parameter":"pm10","value":11.9925694444,"unit":"µg/m³","averagingPeriod":{"unit":"hours","value":1},"location":"Klosterhaugen","city":"Bergen","country":"NO","coordinates":{"latitude":60.395929,"longitude":5.312674},"attribution":[{"name":"Luftkvalitet.info","url":"http://www.luftkvalitet.info/home.aspx"}],"sourceName":"Norway","sourceType":"government","mobile":false}
{"date":{"utc":"2018-11-09T22:00:00.000Z","local":"2018-11-09T19:00:00-03:00"},"parameter":"no2","value":8.36,"unit":"µg/m³","location":"Puchuncaví","city":"Puchuncaví","country":"CL","coordinates":{"latitude":-32.718839486418,"longitude":-71.407960598881},"attribution":[{"name":"SINCA","url":"http://sinca.mma.gob.cl/"},{"name":"CODELCO División Ventanas y AES Gener"}],"sourceName":"Chile - SINCA","sourceType":"government","mobile":false}
{"date":{"utc":"2018-11-10T00:00:00.000Z","local":"2018-11-10T01:00:00+01:00"},"parameter":"no2","value":29.2027135297,"unit":"µg/m³","averagingPeriod":{"unit":"hours","value":1},"location":"Rådal","city":"Bergen","country":"NO","coordinates":{"latitude":60.294268,"longitude":5.324619},"attribution":[{"name":"Luftkvalitet.info","url":"http://www.luftkvalitet.info/home.aspx"}],"sourceName":"Norway","sourceType":"government","mobile":false}
{"date":{"utc":"2018-11-09T23:00:00.000Z","local":"2018-11-09T20:00:00-03:00"},"parameter":"so2","value":27.31,"unit":"µg/m³","location":"Puchuncaví","city":"Puchuncaví","country":"CL","coordinates":{"latitude":-32.718839486418,"longitude":-71.407960598881},"attribution":[{"name":"SINCA","url":"http://sinca.mma.gob.cl/"},{"name":"CODELCO División Ventanas y AES Gener"}],"sourceName":"Chile - SINCA","sourceType":"government","mobile":false}
{"date":{"utc":"2018-11-10T00:00:00.000Z","local":"2018-11-10T01:00:00+01:00"},"parameter":"pm25","value":2.2000083333,"unit":"µg/m³","averagingPeriod":{"unit":"hours","value":1},"location":"Rådal","city":"Bergen","country":"NO","coordinates":{"latitude":60.294268,"longitude":5.324619},"attribution":[{"name":"Luftkvalitet.info","url":"http://www.luftkvalitet.info/home.aspx"}],"sourceName":"Norway","sourceType":"government","mobile":false}
{"date":{"utc":"2018-11-10T00:00:00.000Z","local":"2018-11-10T01:00:00+01:00"},"parameter":"pm10","value":13.2371861111,"unit":"µg/m³","averagingPeriod":{"unit":"hours","value":1},"location":"Rådal","city":"Bergen","country":"NO","coordinates":{"latitude":60.294268,"longitude":5.324619},"attribution":[{"name":"Luftkvalitet.info","url":"http://www.luftkvalitet.info/home.aspx"}],"sourceName":"Norway","sourceType":"government","mobile":false}
{"date":{"utc":"2018-11-09T23:00:00.000Z","local":"2018-11-09T20:00:00-03:00"},"parameter":"pm10","value":14.45,"unit":"µg/m³","location":"Sur","city":"Quintero","country":"CL","coordinates":{"latitude":-32.801440927101,"longitude":-71.484100560852},"attribution":[{"name":"SINCA","url":"http://sinca.mma.gob.cl/"},{"name":"Codelco División Ventanas"}],"sourceName":"Chile - SINCA","sourceType":"government","mobile":false}
{"date":{"utc":"2018-11-09T23:00:00.000Z","local":"2018-11-10T06:00:00+07:00"},"parameter":"co","value":0.58,"unit":"ppm","averagingPeriod":{"value":1,"unit":"hours"},"location":"Sateng, Mueang","city":"Yala","country":"TH","coordinates":{"longitude":101.27999862621,"latitude":6.5499937928872},"attribution":[{"name":"Pollution Control Department","url":"http://www.aqmthai.com/index.php"}],"sourceName":"Thailand","sourceType":"government","mobile":false}
{"date":{"utc":"2018-11-09T23:00:00.000Z","local":"2018-11-10T06:00:00+07:00"},"parameter":"pm10","value":23,"unit":"µg/m³","averagingPeriod":{"value":24,"unit":"hours"},"location":"Sateng, Mueang","city":"Yala","country":"TH","coordinates":{"longitude":101.27999862621,"latitude":6.5499937928872},"attribution":[{"name":"Pollution Control Department","url":"http://www.aqmthai.com/index.php"}],"sourceName":"Thailand","sourceType":"government","mobile":false}
{"date":{"utc":"2018-11-09T22:00:00.000Z","local":"2018-11-09T19:00:00-03:00"},"parameter":"o3","value":29.77,"unit":"µg/m³","location":"Sur","city":"Quintero","country":"CL","coordinates":{"latitude":-32.801440927101,"longitude":-71.484100560852},"attribution":[{"name":"SINCA","url":"http://sinca.mma.gob.cl/"},{"name":"Codelco División Ventanas"}],"sourceName":"Chile - SINCA","sourceType":"government","mobile":false}
{"date":{"utc":"2018-11-10T00:00:00.000Z","local":"2018-11-10T01:00:00+01:00"},"parameter":"pm10","value":10.0061972222,"unit":"µg/m³","averagingPeriod":{"unit":"hours","value":1},"location":"Leiret","city":"Elverum","country":"NO","coordinates":{"latitude":60.88364255,"longitude":11.55930063},"attribution":[{"name":"Luftkvalitet.info","url":"http://www.luftkvalitet.info/home.aspx"}],"sourceName":"Norway","sourceType":"government","mobile":false}
{"date":{"utc":"2018-11-10T00:00:00.000Z","local":"2018-11-10T01:00:00+01:00"},"parameter":"pm10","value":0.9439416667,"unit":"µg/m³","averagingPeriod":{"unit":"hours","value":1},"location":"Rolland, Åsane","city":"Bergen","country":"NO","coordinates":{"latitude":60.462665,"longitude":5.332447},"attribution":[{"name":"Luftkvalitet.info","url":"http://www.luftkvalitet.info/home.aspx"}],"sourceName":"Norway","sourceType":"government","mobile":false}
{"date":{"utc":"2018-11-09T22:00:00.000Z","local":"2018-11-09T19:00:00-03:00"},"parameter":"co","value":161.53,"unit":"µg/m³","location":"Sur","city":"Quintero","country":"CL","coordinates":{"latitude":-32.801440927101,"longitude":-71.484100560852},"attribution":[{"name":"SINCA","url":"http://sinca.mma.gob.cl/"},{"name":"Codelco División Ventanas"}],"sourceName":"Chile - SINCA","sourceType":"government","mobile":false}
{"date":{"utc":"2018-11-09T23:00:00.000Z","local":"2018-11-10T06:00:00+07:00"},"parameter":"co","value":0.5,"unit":"ppm","averagingPeriod":{"value":1,"unit":"hours"},"location":"Wiang Yong, Mueang","city":"Lamphun","country":"TH","coordinates":{"longitude":99.011144750057,"latitude":18.564721437399},"attribution":[{"name":"Pollution Control Department","url":"http://www.aqmthai.com/index.php"}],"sourceName":"Thailand","sourceType":"government","mobile":false}
{"date":{"utc":"2018-11-09T22:00:00.000Z","local":"2018-11-09T19:00:00-03:00"},"parameter":"no2","value":4.35,"unit":"µg/m³","location":"Sur","city":"Quintero","country":"CL","coordinates":{"latitude":-32.801440927101,"longitude":-71.484100560852},"attribution":[{"name":"SINCA","url":"http://sinca.mma.gob.cl/"},{"name":"Codelco División Ventanas"}],"sourceName":"Chile - SINCA","sourceType":"government","mobile":false}
{"date":{"utc":"2018-11-10T00:00:00.000Z","local":"2018-11-10T01:00:00+01:00"},"parameter":"no2","value":44.2980868608,"unit":"µg/m³","averagingPeriod":{"unit":"hours","value":1},"location":"Loddefjord","city":"Bergen","country":"NO","coordinates":{"latitude":60.361135,"longitude":5.23686},"attribution":[{"name":"Luftkvalitet.info","url":"http://www.luftkvalitet.info/home.aspx"}],"sourceName":"Norway","sourceType":"government","mobile":false}
{"date":{"utc":"2018-11-10T00:00:00.000Z","local":"2018-11-10T01:00:00+01:00"},"parameter":"pm25","value":3.7,"unit":"µg/m³","averagingPeriod":{"unit":"hours","value":1},"location":"Bekkestua","city":"Bærum","country":"NO","coordinates":{"latitude":59.9181,"longitude":10.5839},"attribution":[{"name":"Luftkvalitet.info","url":"http://www.luftkvalitet.info/home.aspx"}],"sourceName":"Norway","sourceType":"government","mobile":false}
{"date":{"utc":"2018-11-09T22:00:00.000Z","local":"2018-11-09T19:00:00-03:00"},"parameter":"so2","value":7.29,"unit":"µg/m³","location":"Sur","city":"Quintero","country":"CL","coordinates":{"latitude":-32.801440927101,"longitude":-71.484100560852},"attribution":[{"name":"SINCA","url":"http://sinca.mma.gob.cl/"},{"name":"Codelco División Ventanas"}],"sourceName":"Chile - SINCA","sourceType":"government","mobile":false}
{"date":{"utc":"2018-11-09T23:00:00.000Z","local":"2018-11-10T06:00:00+07:00"},"parameter":"pm10","value":37,"unit":"µg/m³","averagingPeriod":{"value":24,"unit":"hours"},"location":"Wiang Yong, Mueang","city":"Lamphun","country":"TH","coordinates":{"longitude":99.011144750057,"latitude":18.564721437399},"attribution":[{"name":"Pollution Control Department","url":"http://www.aqmthai.com/index.php"}],"sourceName":"Thailand","sourceType":"government","mobile":false}
{"date":{"utc":"2018-11-10T00:00:00.000Z","local":"2018-11-10T01:00:00+01:00"},"parameter":"no2","value":8.2338274789,"unit":"µg/m³","averagingPeriod":{"unit":"hours","value":1},"location":"Nygaardsgata","city":"Fredrikstad","country":"NO","coordinates":{"latitude":59.210191,"longitude":10.940097},"attribution":[{"name":"Luftkvalitet.info","url":"http://www.luftkvalitet.info/home.aspx"}],"sourceName":"Norway","sourceType":"government","mobile":false}
{"date":{"utc":"2018-11-09T22:00:00.000Z","local":"2018-11-09T19:00:00-03:00"},"parameter":"o3","value":29.25,"unit":"µg/m³","location":"Valle Alegre","city":"Quintero","country":"CL","coordinates":{"latitude":-32.807512,"longitude":-71.436274},"attribution":[{"name":"SINCA","url":"http://sinca.mma.gob.cl/"},{"name":"CODELCO División Ventanas y AES Gener"}],"sourceName":"Chile - SINCA","sourceType":"government","mobile":false}
{"date":{"utc":"2018-11-10T00:00:00.000Z","local":"2018-11-10T01:00:00+01:00"},"parameter":"pm25","value":1.96106075,"unit":"µg/m³","averagingPeriod":{"unit":"hours","value":1},"location":"Vangsveien, Hamar","city":"Hamar","country":"NO","coordinates":{"latitude":60.79646,"longitude":11.09777},"attribution":[{"name":"Luftkvalitet.info","url":"http://www.luftkvalitet.info/home.aspx"}],"sourceName":"Norway","sourceType":"government","mobile":false}
{"date":{"utc":"2018-11-09T22:00:00.000Z","local":"2018-11-09T19:00:00-03:00"},"parameter":"no2","value":1.19,"unit":"µg/m³","location":"Valle Alegre","city":"Quintero","country":"CL","coordinates":{"latitude":-32.807512,"longitude":-71.436274},"attribution":[{"name":"SINCA","url":"http://sinca.mma.gob.cl/"},{"name":"CODELCO División Ventanas y AES Gener"}],"sourceName":"Chile - SINCA","sourceType":"government","mobile":false}
{"date":{"utc":"2018-11-10T00:00:00.000Z","local":"2018-11-10T01:00:00+01:00"},"parameter":"no2","value":7.6956930084,"unit":"µg/m³","averagingPeriod":{"unit":"hours","value":1},"location":"Minnesundvegen, Gjøvik","city":"Gjøvik","country":"NO","coordinates":{"latitude":60.79089,"longitude":10.6967},"attribution":[{"name":"Luftkvalitet.info","url":"http://www.luftkvalitet.info/home.aspx"}],"sourceName":"Norway","sourceType":"government","mobile":false}
{"date":{"utc":"2018-11-09T23:00:00.000Z","local":"2018-11-09T20:00:00-03:00"},"parameter":"so2","value":3.99,"unit":"µg/m³","location":"Valle Alegre","city":"Quintero","country":"CL","coordinates":{"latitude":-32.807512,"longitude":-71.436274},"attribution":[{"name":"SINCA","url":"http://sinca.mma.gob.cl/"},{"name":"CODELCO División Ventanas y AES Gener"}],"sourceName":"Chile - SINCA","sourceType":"government","mobile":false}
{"date":{"utc":"2018-11-09T22:00:00.000Z","local":"2018-11-10T05:00:00+07:00"},"parameter":"pm10","value":36,"unit":"µg/m³","averagingPeriod":{"value":24,"unit":"hours"},"location":"Aranyaprathet, Aranyaprathet","city":"Sa Kaeo","country":"TH","coordinates":{"longitude":102.50620686398,"latitude":13.689028480765},"attribution":[{"name":"Pollution Control Department","url":"http://www.aqmthai.com/index.php"}],"sourceName":"Thailand","sourceType":"government","mobile":false}
{"date":{"utc":"2018-11-10T00:00:00.000Z","local":"2018-11-10T01:00:00+01:00"},"parameter":"pm10","value":23.9528731833,"unit":"µg/m³","averagingPeriod":{"unit":"hours","value":1},"location":"Bakke kirke","city":"Trondheim","country":"NO","coordinates":{"latitude":63.43293,"longitude":10.41067},"attribution":[{"name":"Luftkvalitet.info","url":"http://www.luftkvalitet.info/home.aspx"}],"sourceName":"Norway","sourceType":"government","mobile":false}
{"date":{"utc":"2018-11-10T00:00:00.000Z","local":"2018-11-10T05:30:00+05:30"},"parameter":"pm25","value":195.82,"unit":"µg/m³","averagingPeriod":{"unit":"hours","value":0.25},"location":"Aya Nagar, New Delhi - IMD","city":"Delhi","country":"IN","coordinates":{"latitude":28.4706914,"longitude":77.1099364},"attribution":[{"name":"Central Pollution Control Board","url":"https://app.cpcbccr.com/ccr/#/caaqm-dashboard-all/caaqm-landing"}],"sourceName":"caaqm","sourceType":"government","mobile":false}
{"date":{"utc":"2018-11-10T00:00:00.000Z","local":"2018-11-10T01:00:00+01:00"},"parameter":"no2","value":10.9285146435,"unit":"µg/m³","averagingPeriod":{"unit":"hours","value":1},"location":"Lillehammer barnehage","city":"Lillehammer","country":"NO","coordinates":{"latitude":61.12087,"longitude":10.46563},"attribution":[{"name":"Luftkvalitet.info","url":"http://www.luftkvalitet.info/home.aspx"}],"sourceName":"Norway","sourceType":"government","mobile":false}
{"date":{"utc":"2018-11-10T00:00:00.000Z","local":"2018-11-10T05:30:00+05:30"},"parameter":"pm10","value":463.15,"unit":"µg/m³","averagingPeriod":{"unit":"hours","value":0.25},"location":"Aya Nagar, New Delhi - IMD","city":"Delhi","country":"IN","coordinates":{"latitude":28.4706914,"longitude":77.1099364},"attribution":[{"name":"Central Pollution Control Board","url":"https://app.cpcbccr.com/ccr/#/caaqm-dashboard-all/caaqm-landing"}],"sourceName":"caaqm","sourceType":"government","mobile":false}
{"date":{"utc":"2018-11-10T00:00:00.000Z","local":"2018-11-10T01:00:00+01:00"},"parameter":"pm10","value":7.97,"unit":"µg/m³","averagingPeriod":{"unit":"hours","value":1},"location":"Sofienbergparken","city":"Oslo","country":"NO","coordinates":{"latitude":59.92295,"longitude":10.76573},"attribution":[{"name":"Luftkvalitet.info","url":"http://www.luftkvalitet.info/home.aspx"}],"sourceName":"Norway","sourceType":"government","mobile":false}
{"date":{"utc":"2018-11-10T00:00:00.000Z","local":"2018-11-10T05:30:00+05:30"},"parameter":"no2","value":44.23,"unit":"µg/m³","averagingPeriod":{"unit":"hours","value":0.25},"location":"Aya Nagar, New Delhi - IMD","city":"Delhi","country":"IN","coordinates":{"latitude":28.4706914,"longitude":77.1099364},"attribution":[{"name":"Central Pollution Control Board","url":"https://app.cpcbccr.com/ccr/#/caaqm-dashboard-all/caaqm-landing"}],"sourceName":"caaqm","sourceType":"government","mobile":false}
{"date":{"utc":"2018-11-10T00:00:00.000Z","local":"2018-11-10T01:00:00+01:00"},"parameter":"pm10","value":5.61,"unit":"µg/m³","averagingPeriod":{"unit":"hours","value":1},"location":"Hansjordnesbukta","city":"Tromsø","country":"NO","coordinates":{"latitude":69.65625,"longitude":18.96372},"attribution":[{"name":"Luftkvalitet.info","url":"http://www.luftkvalitet.info/home.aspx"}],"sourceName":"Norway","sourceType":"government","mobile":false}
{"date":{"utc":"2018-11-10T00:00:00.000Z","local":"2018-11-10T05:30:00+05:30"},"parameter":"co","value":3130,"unit":"µg/m³","averagingPeriod":{"unit":"hours","value":0.25},"location":"Aya Nagar, New Delhi - IMD","city":"Delhi","country":"IN","coordinates":{"latitude":28.4706914,"longitude":77.1099364},"attribution":[{"name":"Central Pollution Control Board","url":"https://app.cpcbccr.com/ccr/#/caaqm-dashboard-all/caaqm-landing"}],"sourceName":"caaqm","sourceType":"government","mobile":false}
{"date":{"utc":"2018-11-10T00:00:00.000Z","local":"2018-11-10T01:00:00+01:00"},"parameter":"pm25","value":7.19,"unit":"µg/m³","averagingPeriod":{"unit":"hours","value":1},"location":"Sofienbergparken","city":"Oslo","country":"NO","coordinates":{"latitude":59.92295,"longitude":10.76573},"attribution":[{"name":"Luftkvalitet.info","url":"http://www.luftkvalitet.info/home.aspx"}],"sourceName":"Norway","sourceType":"government","mobile":false}
{"date":{"utc":"2018-11-10T00:00:00.000Z","local":"2018-11-10T05:30:00+05:30"},"parameter":"o3","value":28.39,"unit":"µg/m³","averagingPeriod":{"unit":"hours","value":0.25},"location":"Aya Nagar, New Delhi - IMD","city":"Delhi","country":"IN","coordinates":{"latitude":28.4706914,"longitude":77.1099364},"attribution":[{"name":"Central Pollution Control Board","url":"https://app.cpcbccr.com/ccr/#/caaqm-dashboard-all/caaqm-landing"}],"sourceName":"caaqm","sourceType":"government","mobile":false}
{"date":{"utc":"2018-11-10T00:00:00.000Z","local":"2018-11-10T01:00:00+01:00"},"parameter":"no2","value":6.0506238273,"unit":"µg/m³","averagingPeriod":{"unit":"hours","value":1},"location":"Sverresgate","city":"Grenland","country":"NO","coordinates":{"latitude":59.13812,"longitude":9.65212},"attribution":[{"name":"Luftkvalitet.info","url":"http://www.luftkvalitet.info/home.aspx"}],"sourceName":"Norway","sourceType":"government","mobile":false}
{"date":{"utc":"2018-11-10T00:00:00.000Z","local":"2018-11-10T01:00:00+01:00"},"parameter":"pm25","value":0.9135222222,"unit":"µg/m³","averagingPeriod":{"unit":"hours","value":1},"location":"Våland","city":"Stavanger","country":"NO","coordinates":{"latitude":58.96173,"longitude":5.73147},"attribution":[{"name":"Luftkvalitet.info","url":"http://www.luftkvalitet.info/home.aspx"}],"sourceName":"Norway","sourceType":"government","mobile":false}
{"date":{"utc":"2018-11-10T00:00:00.000Z","local":"2018-11-10T01:00:00+01:00"},"parameter":"no2","value":8.319083439,"unit":"µg/m³","averagingPeriod":{"unit":"hours","value":1},"location":"Kirkeveien","city":"Oslo","country":"NO","coordinates":{"latitude":59.93233,"longitude":10.72447},"attribution":[{"name":"Luftkvalitet.info","url":"http://www.luftkvalitet.info/home.aspx"}],"sourceName":"Norway","sourceType":"government","mobile":false}
{"date":{"utc":"2018-11-09T23:00:00.000Z","local":"2018-11-09T20:00:00-03:00"},"parameter":"so2","value":6.84,"unit":"µg/m³","location":"Quintero","city":"Quintero","country":"CL","coordinates":{"latitude":-32.772516452112,"longitude":-71.535303287094},"attribution":[{"name":"SINCA","url":"http://sinca.mma.gob.cl/"},{"name":"Codelco División Ventanas"}],"sourceName":"Chile - SINCA","sourceType":"government","mobile":false}
{"date":{"utc":"2018-11-10T00:00:00.000Z","local":"2018-11-10T01:00:00+01:00"},"parameter":"no2","value":18.0277740562,"unit":"µg/m³","averagingPeriod":{"unit":"hours","value":1},"location":"Bygdøy Alle","city":"Oslo","country":"NO","coordinates":{"latitude":59.91898,"longitude":10.69707},"attribution":[{"name":"Luftkvalitet.info","url":"http://www.luftkvalitet.info/home.aspx"}],"sourceName":"Norway","sourceType":"government","mobile":false}
{"date":{"utc":"2018-11-10T00:00:00.000Z","local":"2018-11-10T01:00:00+01:00"},"parameter":"pm25","value":2.7403583333,"unit":"µg/m³","averagingPeriod":{"unit":"hours","value":1},"location":"Leiret","city":"Elverum","country":"NO","coordinates":{"latitude":60.88364255,"longitude":11.55930063},"attribution":[{"name":"Luftkvalitet.info","url":"http://www.luftkvalitet.info/home.aspx"}],"sourceName":"Norway","sourceType":"government","mobile":false}
{"date":{"utc":"2018-11-10T00:00:00.000Z","local":"2018-11-10T01:00:00+01:00"},"parameter":"no2","value":2.475118575,"unit":"µg/m³","averagingPeriod":{"unit":"hours","value":1},"location":"Knarrdalstranda","city":"Grenland","country":"NO","coordinates":{"latitude":59.13354,"longitude":9.6219},"attribution":[{"name":"Luftkvalitet.info","url":"http://www.luftkvalitet.info/home.aspx"}],"sourceName":"Norway","sourceType":"government","mobile":false}
{"date":{"utc":"2018-11-09T23:00:00.000Z","local":"2018-11-09T20:00:00-03:00"},"parameter":"pm25","value":7.55,"unit":"µg/m³","location":"Ventanas","city":"Puchuncaví","country":"CL","coordinates":{"latitude":-32.741815962175,"longitude":-71.480882901344},"attribution":[{"name":"SINCA","url":"http://sinca.mma.gob.cl/"},{"name":"CODELCO División Ventanas y AES Gener"}],"sourceName":"Chile - SINCA","sourceType":"government","mobile":false}
{"date":{"utc":"2018-11-10T00:00:00.000Z","local":"2018-11-10T01:00:00+01:00"},"parameter":"pm10","value":2.97,"unit":"µg/m³","averagingPeriod":{"unit":"hours","value":1},"location":"Knarrdalstranda","city":"Grenland","country":"NO","coordinates":{"latitude":59.13354,"longitude":9.6219},"attribution":[{"name":"Luftkvalitet.info","url":"http://www.luftkvalitet.info/home.aspx"}],"sourceName":"Norway","sourceType":"government","mobile":false}
{"date":{"utc":"2018-11-09T22:00:00.000Z","local":"2018-11-09T19:00:00-03:00"},"parameter":"pm10","value":58.72,"unit":"µg/m³","location":"Ventanas","city":"Puchuncaví","country":"CL","coordinates":{"latitude":-32.741815962175,"longitude":-71.480882901344},"attribution":[{"name":"SINCA","url":"http://sinca.mma.gob.cl/"},{"name":"CODELCO División Ventanas y AES Gener"}],"sourceName":"Chile - SINCA","sourceType":"government","mobile":false}
{"date":{"utc":"2018-11-10T00:00:00.000Z","local":"2018-11-10T01:00:00+01:00"},"parameter":"pm10","value":10.45,"unit":"µg/m³","averagingPeriod":{"unit":"hours","value":1},"location":"Karl Eriksens plass","city":"Ålesund","country":"NO","coordinates":{"latitude":62.470622,"longitude":6.153501},"attribution":[{"name":"Luftkvalitet.info","url":"http://www.luftkvalitet.info/home.aspx"}],"sourceName":"Norway","sourceType":"government","mobile":false}
{"date":{"utc":"2018-11-10T00:00:00.000Z","local":"2018-11-10T01:00:00+01:00"},"parameter":"no2","value":9.653151614,"unit":"µg/m³","averagingPeriod":{"unit":"hours","value":1},"location":"Karl Eriksens plass","city":"Ålesund","country":"NO","coordinates":{"latitude":62.470622,"longitude":6.153501},"attribution":[{"name":"Luftkvalitet.info","url":"http://www.luftkvalitet.info/home.aspx"}],"sourceName":"Norway","sourceType":"government","mobile":false}
{"date":{"utc":"2018-11-09T22:00:00.000Z","local":"2018-11-09T19:00:00-03:00"},"parameter":"o3","value":19.82,"unit":"µg/m³","location":"Ventanas","city":"Puchuncaví","country":"CL","coordinates":{"latitude":-32.741815962175,"longitude":-71.480882901344},"attribution":[{"name":"SINCA","url":"http://sinca.mma.gob.cl/"},{"name":"CODELCO División Ventanas y AES Gener"}],"sourceName":"Chile - SINCA","sourceType":"government","mobile":false}
{"date":{"utc":"2018-11-09T22:00:00.000Z","local":"2018-11-09T19:00:00-03:00"},"parameter":"no2","value":5.73,"unit":"µg/m³","location":"Ventanas","city":"Puchuncaví","country":"CL","coordinates":{"latitude":-32.741815962175,"longitude":-71.480882901344},"attribution":[{"name":"SINCA","url":"http://sinca.mma.gob.cl/"},{"name":"CODELCO División Ventanas y AES Gener"}],"sourceName":"Chile - SINCA","sourceType":"government","mobile":false}
{"date":{"utc":"2018-11-10T00:00:00.000Z","local":"2018-11-10T01:00:00+01:00"},"parameter":"pm10","value":6,"unit":"µg/m³","averagingPeriod":{"unit":"hours","value":1},"location":"Åkebergveien","city":"Oslo","country":"NO","coordinates":{"latitude":59.912001,"longitude":10.767426},"attribution":[{"name":"Luftkvalitet.info","url":"http://www.luftkvalitet.info/home.aspx"}],"sourceName":"Norway","sourceType":"government","mobile":false}
{"date":{"utc":"2018-11-10T00:00:00.000Z","local":"2018-11-10T01:00:00+01:00"},"parameter":"pm10","value":3.1015472222,"unit":"µg/m³","averagingPeriod":{"unit":"hours","value":1},"location":"Furulund","city":"Grenland","country":"NO","coordinates":{"latitude":59.057304,"longitude":9.695568},"attribution":[{"name":"Luftkvalitet.info","url":"http://www.luftkvalitet.info/home.aspx"}],"sourceName":"Norway","sourceType":"government","mobile":false}
{"date":{"utc":"2018-11-09T22:00:00.000Z","local":"2018-11-09T19:00:00-03:00"},"parameter":"so2","value":8.78,"unit":"µg/m³","location":"Ventanas","city":"Puchuncaví","country":"CL","coordinates":{"latitude":-32.741815962175,"longitude":-71.480882901344},"attribution":[{"name":"SINCA","url":"http://sinca.mma.gob.cl/"},{"name":"CODELCO División Ventanas y AES Gener"}],"sourceName":"Chile - SINCA","sourceType":"government","mobile":false}
{"date":{"utc":"2018-11-10T00:00:00.000Z","local":"2018-11-10T05:30:00+05:30"},"parameter":"pm25","value":244.4,"unit":"µg/m³","averagingPeriod":{"unit":"hours","value":0.25},"location":"Sector - 62, Noida, UP - IMD","city":"Noida","country":"IN","coordinates":{"latitude":28.6245479,"longitude":77.3577104},"attribution":[{"name":"Central Pollution Control Board","url":"https://app.cpcbccr.com/ccr/#/caaqm-dashboard-all/caaqm-landing"}],"sourceName":"caaqm","sourceType":"government","mobile":false}
{"date":{"utc":"2018-11-10T00:00:00.000Z","local":"2018-11-10T01:00:00+01:00"},"parameter":"pm25","value":2.2767,"unit":"µg/m³","averagingPeriod":{"unit":"hours","value":1},"location":"Furulund","city":"Grenland","country":"NO","coordinates":{"latitude":59.057304,"longitude":9.695568},"attribution":[{"name":"Luftkvalitet.info","url":"http://www.luftkvalitet.info/home.aspx"}],"sourceName":"Norway","sourceType":"government","mobile":false}
{"date":{"utc":"2018-11-10T00:00:00.000Z","local":"2018-11-10T05:30:00+05:30"},"parameter":"pm10","value":279.04,"unit":"µg/m³","averagingPeriod":{"unit":"hours","value":0.25},"location":"Sector - 62, Noida, UP - IMD","city":"Noida","country":"IN","coordinates":{"latitude":28.6245479,"longitude":77.3577104},"attribution":[{"name":"Central Pollution Control Board","url":"https://app.cpcbccr.com/ccr/#/caaqm-dashboard-all/caaqm-landing"}],"sourceName":"caaqm","sourceType":"government","mobile":false}
{"date":{"utc":"2018-11-10T00:00:00.000Z","local":"2018-11-10T01:00:00+01:00"},"parameter":"pm25","value":13.5468388889,"unit":"µg/m³","averagingPeriod":{"unit":"hours","value":1},"location":"Sentrum","city":"Narvik","country":"NO","coordinates":{"latitude":68.435397,"longitude":17.424891},"attribution":[{"name":"Luftkvalitet.info","url":"http://www.luftkvalitet.info/home.aspx"}],"sourceName":"Norway","sourceType":"government","mobile":false}
{"date":{"utc":"2018-11-10T00:00:00.000Z","local":"2018-11-10T05:30:00+05:30"},"parameter":"no2","value":16.5,"unit":"µg/m³","averagingPeriod":{"unit":"hours","value":0.25},"location":"Sector - 62, Noida, UP - IMD","city":"Noida","country":"IN","coordinates":{"latitude":28.6245479,"longitude":77.3577104},"attribution":[{"name":"Central Pollution Control Board","url":"https://app.cpcbccr.com/ccr/#/caaqm-dashboard-all/caaqm-landing"}],"sourceName":"caaqm","sourceType":"government","mobile":false}
{"date":{"utc":"2018-11-10T00:00:00.000Z","local":"2018-11-10T01:00:00+01:00"},"parameter":"pm10","value":16.5873861111,"unit":"µg/m³","averagingPeriod":{"unit":"hours","value":1},"location":"Sentrum","city":"Narvik","country":"NO","coordinates":{"latitude":68.435397,"longitude":17.424891},"attribution":[{"name":"Luftkvalitet.info","url":"http://www.luftkvalitet.info/home.aspx"}],"sourceName":"Norway","sourceType":"government","mobile":false}
{"date":{"utc":"2018-11-10T00:00:00.000Z","local":"2018-11-10T05:30:00+05:30"},"parameter":"co","value":3540,"unit":"µg/m³","averagingPeriod":{"unit":"hours","value":0.25},"location":"Sector - 62, Noida, UP - IMD","city":"Noida","country":"IN","coordinates":{"latitude":28.6245479,"longitude":77.3577104},"attribution":[{"name":"Central Pollution Control Board","url":"https://app.cpcbccr.com/ccr/#/caaqm-dashboard-all/caaqm-landing"}],"sourceName":"caaqm","sourceType":"government","mobile":false}
{"date":{"utc":"2018-11-10T00:00:00.000Z","local":"2018-11-10T05:30:00+05:30"},"parameter":"o3","value":15.36,"unit":"µg/m³","averagingPeriod":{"unit":"hours","value":0.25},"location":"Sector - 62, Noida, UP - IMD","city":"Noida","country":"IN","coordinates":{"latitude":28.6245479,"longitude":77.3577104},"attribution":[{"name":"Central Pollution Control Board","url":"https://app.cpcbccr.com/ccr/#/caaqm-dashboard-all/caaqm-landing"}],"sourceName":"caaqm","sourceType":"government","mobile":false}
{"date":{"utc":"2018-11-10T00:00:00.000Z","local":"2018-11-10T01:00:00+01:00"},"parameter":"pm25","value":0.6510694444,"unit":"µg/m³","averagingPeriod":{"unit":"hours","value":1},"location":"Rolland, Åsane","city":"Bergen","country":"NO","coordinates":{"latitude":60.462665,"longitude":5.332447},"attribution":[{"name":"Luftkvalitet.info","url":"http://www.luftkvalitet.info/home.aspx"}],"sourceName":"Norway","sourceType":"government","mobile":false}
{"date":{"utc":"2018-11-10T00:00:00.000Z","local":"2018-11-10T01:00:00+01:00"},"parameter":"pm25","value":5.9732277778,"unit":"µg/m³","averagingPeriod":{"unit":"hours","value":1},"location":"Loddefjord","city":"Bergen","country":"NO","coordinates":{"latitude":60.361135,"longitude":5.23686},"attribution":[{"name":"Luftkvalitet.info","url":"http://www.luftkvalitet.info/home.aspx"}],"sourceName":"Norway","sourceType":"government","mobile":false}
{"date":{"utc":"2018-11-10T00:00:00.000Z","local":"2018-11-10T01:00:00+01:00"},"parameter":"pm10","value":13.8271083333,"unit":"µg/m³","averagingPeriod":{"unit":"hours","value":1},"location":"Loddefjord","city":"Bergen","country":"NO","coordinates":{"latitude":60.361135,"longitude":5.23686},"attribution":[{"name":"Luftkvalitet.info","url":"http://www.luftkvalitet.info/home.aspx"}],"sourceName":"Norway","sourceType":"government","mobile":false}
{"date":{"utc":"2018-11-09T23:45:00.000Z","local":"2018-11-10T05:15:00+05:30"},"parameter":"pm25","value":181.85,"unit":"µg/m³","averagingPeriod":{"unit":"hours","value":0.25},"location":"NSIT Dwarka, New Delhi - CPCB","city":"Delhi","country":"IN","coordinates":{"latitude":28.60909,"longitude":77.0325413},"attribution":[{"name":"Central Pollution Control Board","url":"https://app.cpcbccr.com/ccr/#/caaqm-dashboard-all/caaqm-landing"}],"sourceName":"caaqm","sourceType":"government","mobile":false}
{"date":{"utc":"2018-11-10T00:00:00.000Z","local":"2018-11-10T01:00:00+01:00"},"parameter":"pm10","value":9.7,"unit":"µg/m³","averagingPeriod":{"unit":"hours","value":1},"location":"Alvim","city":"Sarpsborg","country":"NO","coordinates":{"latitude":59.27377544,"longitude":11.08919017},"attribution":[{"name":"Luftkvalitet.info","url":"http://www.luftkvalitet.info/home.aspx"}],"sourceName":"Norway","sourceType":"government","mobile":false}
{"date":{"utc":"2018-11-09T23:45:00.000Z","local":"2018-11-10T05:15:00+05:30"},"parameter":"no2","value":31.91,"unit":"µg/m³","averagingPeriod":{"unit":"hours","value":0.25},"location":"NSIT Dwarka, New Delhi - CPCB","city":"Delhi","country":"IN","coordinates":{"latitude":28.60909,"longitude":77.0325413},"attribution":[{"name":"Central Pollution Control Board","url":"https://app.cpcbccr.com/ccr/#/caaqm-dashboard-all/caaqm-landing"}],"sourceName":"caaqm","sourceType":"government","mobile":false}
{"date":{"utc":"2018-11-09T23:45:00.000Z","local":"2018-11-10T05:15:00+05:30"},"parameter":"so2","value":26.71,"unit":"µg/m³","averagingPeriod":{"unit":"hours","value":0.25},"location":"NSIT Dwarka, New Delhi - CPCB","city":"Delhi","country":"IN","coordinates":{"latitude":28.60909,"longitude":77.0325413},"attribution":[{"name":"Central Pollution Control Board","url":"https://app.cpcbccr.com/ccr/#/caaqm-dashboard-all/caaqm-landing"}],"sourceName":"caaqm","sourceType":"government","mobile":false}
{"date":{"utc":"2018-11-10T00:00:00.000Z","local":"2018-11-10T01:00:00+01:00"},"parameter":"no2","value":3.4494053106,"unit":"µg/m³","averagingPeriod":{"unit":"hours","value":1},"location":"Furulund","city":"Grenland","country":"NO","coordinates":{"latitude":59.057304,"longitude":9.695568},"attribution":[{"name":"Luftkvalitet.info","url":"http://www.luftkvalitet.info/home.aspx"}],"sourceName":"Norway","sourceType":"government","mobile":false}
{"date":{"utc":"2018-11-09T23:45:00.000Z","local":"2018-11-10T05:15:00+05:30"},"parameter":"co","value":840,"unit":"µg/m³","averagingPeriod":{"unit":"hours","value":0.25},"location":"NSIT Dwarka, New Delhi - CPCB","city":"Delhi","country":"IN","coordinates":{"latitude":28.60909,"longitude":77.0325413},"attribution":[{"name":"Central Pollution Control Board","url":"https://app.cpcbccr.com/ccr/#/caaqm-dashboard-all/caaqm-landing"}],"sourceName":"caaqm","sourceType":"government","mobile":false}
{"date":{"utc":"2018-11-10T00:00:00.000Z","local":"2018-11-10T01:00:00+01:00"},"parameter":"no2","value":5.8561649017,"unit":"µg/m³","averagingPeriod":{"unit":"hours","value":1},"location":"Bekkestua","city":"Bærum","country":"NO","coordinates":{"latitude":59.9181,"longitude":10.5839},"attribution":[{"name":"Luftkvalitet.info","url":"http://www.luftkvalitet.info/home.aspx"}],"sourceName":"Norway","sourceType":"government","mobile":false}
{"date":{"utc":"2018-11-10T00:00:00.000Z","local":"2018-11-10T01:00:00+01:00"},"parameter":"pm10","value":4,"unit":"µg/m³","averagingPeriod":{"unit":"hours","value":1},"location":"Bekkestua","city":"Bærum","country":"NO","coordinates":{"latitude":59.9181,"longitude":10.5839},"attribution":[{"name":"Luftkvalitet.info","url":"http://www.luftkvalitet.info/home.aspx"}],"sourceName":"Norway","sourceType":"government","mobile":false}
{"date":{"utc":"2018-11-09T23:45:00.000Z","local":"2018-11-10T05:15:00+05:30"},"parameter":"o3","value":3.09,"unit":"µg/m³","averagingPeriod":{"unit":"hours","value":0.25},"location":"NSIT Dwarka, New Delhi - CPCB","city":"Delhi","country":"IN","coordinates":{"latitude":28.60909,"longitude":77.0325413},"attribution":[{"name":"Central Pollution Control Board","url":"https://app.cpcbccr.com/ccr/#/caaqm-dashboard-all/caaqm-landing"}],"sourceName":"caaqm","sourceType":"government","mobile":false}
{"date":{"utc":"2018-11-09T23:45:00.000Z","local":"2018-11-10T05:15:00+05:30"},"parameter":"pm25","value":212.1,"unit":"µg/m³","averagingPeriod":{"unit":"hours","value":0.25},"location":"Shadipur, New Delhi - CPCB","city":"Delhi","country":"IN","coordinates":{"latitude":28.6514781,"longitude":77.1473105},"attribution":[{"name":"Central Pollution Control Board","url":"https://app.cpcbccr.com/ccr/#/caaqm-dashboard-all/caaqm-landing"}],"sourceName":"caaqm","sourceType":"government","mobile":false}
{"date":{"utc":"2018-11-10T00:00:00.000Z","local":"2018-11-10T01:00:00+01:00"},"parameter":"so2","value":0,"unit":"µg/m³","averagingPeriod":{"unit":"hours","value":1},"location":"Holta","city":"Lillesand","country":"NO","coordinates":{"latitude":58.25602,"longitude":8.35935},"attribution":[{"name":"Luftkvalitet.info","url":"http://www.luftkvalitet.info/home.aspx"}],"sourceName":"Norway","sourceType":"government","mobile":false}
{"date":{"utc":"2018-11-09T23:45:00.000Z","local":"2018-11-10T05:15:00+05:30"},"parameter":"no2","value":100.91,"unit":"µg/m³","averagingPeriod":{"unit":"hours","value":0.25},"location":"Shadipur, New Delhi - CPCB","city":"Delhi","country":"IN","coordinates":{"latitude":28.6514781,"longitude":77.1473105},"attribution":[{"name":"Central Pollution Control Board","url":"https://app.cpcbccr.com/ccr/#/caaqm-dashboard-all/caaqm-landing"}],"sourceName":"caaqm","sourceType":"government","mobile":false}
{"date":{"utc":"2018-11-10T00:00:00.000Z","local":"2018-11-10T01:00:00+01:00"},"parameter":"pm25","value":5.1,"unit":"µg/m³","averagingPeriod":{"unit":"hours","value":1},"location":"Eilif Dues vei","city":"Bærum","country":"NO","coordinates":{"latitude":59.90608,"longitude":10.61195},"attribution":[{"name":"Luftkvalitet.info","url":"http://www.luftkvalitet.info/home.aspx"}],"sourceName":"Norway","sourceType":"government","mobile":false}
{"date":{"utc":"2018-11-09T23:45:00.000Z","local":"2018-11-10T05:15:00+05:30"},"parameter":"so2","value":22.31,"unit":"µg/m³","averagingPeriod":{"unit":"hours","value":0.25},"location":"Shadipur, New Delhi - CPCB","city":"Delhi","country":"IN","coordinates":{"latitude":28.6514781,"longitude":77.1473105},"attribution":[{"name":"Central Pollution Control Board","url":"https://app.cpcbccr.com/ccr/#/caaqm-dashboard-all/caaqm-landing"}],"sourceName":"caaqm","sourceType":"government","mobile":false}
{"date":{"utc":"2018-11-10T00:00:00.000Z","local":"2018-11-10T01:00:00+01:00"},"parameter":"pm10","value":5.9,"unit":"µg/m³","averagingPeriod":{"unit":"hours","value":1},"location":"Eilif Dues vei","city":"Bærum","country":"NO","coordinates":{"latitude":59.90608,"longitude":10.61195},"attribution":[{"name":"Luftkvalitet.info","url":"http://www.luftkvalitet.info/home.aspx"}],"sourceName":"Norway","sourceType":"government","mobile":false}
{"date":{"utc":"2018-11-09T23:45:00.000Z","local":"2018-11-10T05:15:00+05:30"},"parameter":"co","value":3310,"unit":"µg/m³","averagingPeriod":{"unit":"hours","value":0.25},"location":"Shadipur, New Delhi - CPCB","city":"Delhi","country":"IN","coordinates":{"latitude":28.6514781,"longitude":77.1473105},"attribution":[{"name":"Central Pollution Control Board","url":"https://app.cpcbccr.com/ccr/#/caaqm-dashboard-all/caaqm-landing"}],"sourceName":"caaqm","sourceType":"government","mobile":false}
{"date":{"utc":"2018-11-10T00:00:00.000Z","local":"2018-11-10T01:00:00+01:00"},"parameter":"pm25","value":2.62219785,"unit":"µg/m³","averagingPeriod":{"unit":"hours","value":1},"location":"Vigernes","city":"Lillestrøm","country":"NO","coordinates":{"latitude":59.955477,"longitude":11.073983},"attribution":[{"name":"Luftkvalitet.info","url":"http://www.luftkvalitet.info/home.aspx"}],"sourceName":"Norway","sourceType":"government","mobile":false}
{"date":{"utc":"2018-11-09T23:45:00.000Z","local":"2018-11-10T05:15:00+05:30"},"parameter":"o3","value":67.33,"unit":"µg/m³","averagingPeriod":{"unit":"hours","value":0.25},"location":"Shadipur, New Delhi - CPCB","city":"Delhi","country":"IN","coordinates":{"latitude":28.6514781,"longitude":77.1473105},"attribution":[{"name":"Central Pollution Control Board","url":"https://app.cpcbccr.com/ccr/#/caaqm-dashboard-all/caaqm-landing"}],"sourceName":"caaqm","sourceType":"government","mobile":false}
{"date":{"utc":"2018-11-09T23:45:00.000Z","local":"2018-11-10T05:15:00+05:30"},"parameter":"pm25","value":262,"unit":"µg/m³","averagingPeriod":{"unit":"hours","value":0.25},"location":"Vasundhara, Ghaziabad, UP - UPPCB","city":"Ghaziabad","country":"IN","coordinates":{"latitude":28.6603346,"longitude":77.3572563},"attribution":[{"name":"Central Pollution Control Board","url":"https://app.cpcbccr.com/ccr/#/caaqm-dashboard-all/caaqm-landing"}],"sourceName":"caaqm","sourceType":"government","mobile":false}
{"date":{"utc":"2018-11-10T00:00:00.000Z","local":"2018-11-10T01:00:00+01:00"},"parameter":"pm10","value":3.15583585,"unit":"µg/m³","averagingPeriod":{"unit":"hours","value":1},"location":"Vigernes","city":"Lillestrøm","country":"NO","coordinates":{"latitude":59.955477,"longitude":11.073983},"attribution":[{"name":"Luftkvalitet.info","url":"http://www.luftkvalitet.info/home.aspx"}],"sourceName":"Norway","sourceType":"government","mobile":false}
{"date":{"utc":"2018-11-09T23:45:00.000Z","local":"2018-11-10T05:15:00+05:30"},"parameter":"pm10","value":339,"unit":"µg/m³","averagingPeriod":{"unit":"hours","value":0.25},"location":"Vasundhara, Ghaziabad, UP - UPPCB","city":"Ghaziabad","country":"IN","coordinates":{"latitude":28.6603346,"longitude":77.3572563},"attribution":[{"name":"Central Pollution Control Board","url":"https://app.cpcbccr.com/ccr/#/caaqm-dashboard-all/caaqm-landing"}],"sourceName":"caaqm","sourceType":"government","mobile":false}
{"date":{"utc":"2018-11-10T00:00:00.000Z","local":"2018-11-10T01:00:00+01:00"},"parameter":"no2","value":2.0913535628,"unit":"µg/m³","averagingPeriod":{"unit":"hours","value":1},"location":"Vigernes","city":"Lillestrøm","country":"NO","coordinates":{"latitude":59.955477,"longitude":11.073983},"attribution":[{"name":"Luftkvalitet.info","url":"http://www.luftkvalitet.info/home.aspx"}],"sourceName":"Norway","sourceType":"government","mobile":false}
{"date":{"utc":"2018-01-01T00:00:00.000Z","local":"2018-01-01T08:00:00+08:00"},"parameter":"no2","value":15,"unit":"µg/m³","averagingPeriod":{"value":0.3,"unit":"hours"},"location":"УБ-3","city":"Ulaanbaatar","country":"MN","coordinates":{"latitude":47.91786111111111,"longitude":106.84806111111111},"attribution":[{"name":"Tsag-Agaar.gov.mn","url":"http://tsag-agaar.gov.mn"},{"name":"National Agency of Meteorology and Environmental Monitoring","url":"http://namem.gov.mn"}],"sourceName":"Tsag-Agaar.gov.mn","sourceType":"government","mobile":false}
{"date":{"utc":"2018-11-09T23:45:00.000Z","local":"2018-11-10T05:15:00+05:30"},"parameter":"no2","value":82.8,"unit":"µg/m³","averagingPeriod":{"unit":"hours","value":0.25},"location":"Vasundhara, Ghaziabad, UP - UPPCB","city":"Ghaziabad","country":"IN","coordinates":{"latitude":28.6603346,"longitude":77.3572563},"attribution":[{"name":"Central Pollution Control Board","url":"https://app.cpcbccr.com/ccr/#/caaqm-dashboard-all/caaqm-landing"}],"sourceName":"caaqm","sourceType":"government","mobile":false}
{"date":{"utc":"2018-11-10T00:00:00.000Z","local":"2018-11-10T01:00:00+01:00"},"parameter":"pm10","value":16.5413728333,"unit":"µg/m³","averagingPeriod":{"unit":"hours","value":1},"location":"Vangsveien, Hamar","city":"Hamar","country":"NO","coordinates":{"latitude":60.79646,"longitude":11.09777},"attribution":[{"name":"Luftkvalitet.info","url":"http://www.luftkvalitet.info/home.aspx"}],"sourceName":"Norway","sourceType":"government","mobile":false}
{"date":{"utc":"2018-01-02T00:00:00.000Z","local":"2018-01-02T08:00:00+08:00"},"parameter":"no2","value":17,"unit":"µg/m³","averagingPeriod":{"value":0.3,"unit":"hours"},"location":"УБ-3","city":"Ulaanbaatar","country":"MN","coordinates":{"latitude":47.91786111111111,"longitude":106.84806111111111},"attribution":[{"name":"Tsag-Agaar.gov.mn","url":"http://tsag-agaar.gov.mn"},{"name":"National Agency of Meteorology and Environmental Monitoring","url":"http://namem.gov.mn"}],"sourceName":"Tsag-Agaar.gov.mn","sourceType":"government","mobile":false}
{"date":{"utc":"2018-11-09T23:45:00.000Z","local":"2018-11-10T05:15:00+05:30"},"parameter":"so2","value":8.3,"unit":"µg/m³","averagingPeriod":{"unit":"hours","value":0.25},"location":"Vasundhara, Ghaziabad, UP - UPPCB","city":"Ghaziabad","country":"IN","coordinates":{"latitude":28.6603346,"longitude":77.3572563},"attribution":[{"name":"Central Pollution Control Board","url":"https://app.cpcbccr.com/ccr/#/caaqm-dashboard-all/caaqm-landing"}],"sourceName":"caaqm","sourceType":"government","mobile":false}
{"date":{"utc":"2018-01-02T00:00:00.000Z","local":"2018-01-02T08:00:00+08:00"},"parameter":"so2","value":19,"unit":"µg/m³","averagingPeriod":{"value":0.3,"unit":"hours"},"location":"УБ-3","city":"Ulaanbaatar","country":"MN","coordinates":{"latitude":47.91786111111111,"longitude":106.84806111111111},"attribution":[{"name":"Tsag-Agaar.gov.mn","url":"http://tsag-agaar.gov.mn"},{"name":"National Agency of Meteorology and Environmental Monitoring","url":"http://namem.gov.mn"}],"sourceName":"Tsag-Agaar.gov.mn","sourceType":"government","mobile":false}
{"date":{"utc":"2018-11-10T00:00:00.000Z","local":"2018-11-10T01:00:00+01:00"},"parameter":"no2","value":6.6096835194,"unit":"µg/m³","averagingPeriod":{"unit":"hours","value":1},"location":"Vangsveien, Hamar","city":"Hamar","country":"NO","coordinates":{"latitude":60.79646,"longitude":11.09777},"attribution":[{"name":"Luftkvalitet.info","url":"http://www.luftkvalitet.info/home.aspx"}],"sourceName":"Norway","sourceType":"government","mobile":false}
{"date":{"utc":"2018-11-09T23:45:00.000Z","local":"2018-11-10T05:15:00+05:30"},"parameter":"co","value":2450,"unit":"µg/m³","averagingPeriod":{"unit":"hours","value":0.25},"location":"Vasundhara, Ghaziabad, UP - UPPCB","city":"Ghaziabad","country":"IN","coordinates":{"latitude":28.6603346,"longitude":77.3572563},"attribution":[{"name":"Central Pollution Control Board","url":"https://app.cpcbccr.com/ccr/#/caaqm-dashboard-all/caaqm-landing"}],"sourceName":"caaqm","sourceType":"government","mobile":false}
{"date":{"utc":"2018-01-03T00:00:00.000Z","local":"2018-01-03T08:00:00+08:00"},"parameter":"no2","value":47,"unit":"µg/m³","averagingPeriod":{"value":0.3,"unit":"hours"},"location":"УБ-3","city":"Ulaanbaatar","country":"MN","coordinates":{"latitude":47.91786111111111,"longitude":106.84806111111111},"attribution":[{"name":"Tsag-Agaar.gov.mn","url":"http://tsag-agaar.gov.mn"},{"name":"National Agency of Meteorology and Environmental Monitoring","url":"http://namem.gov.mn"}],"sourceName":"Tsag-Agaar.gov.mn","sourceType":"government","mobile":false}
{"date":{"utc":"2018-11-10T00:00:00.000Z","local":"2018-11-10T01:00:00+01:00"},"parameter":"pm25","value":4.9969274333,"unit":"µg/m³","averagingPeriod":{"unit":"hours","value":1},"location":"Minnesundvegen, Gjøvik","city":"Gjøvik","country":"NO","coordinates":{"latitude":60.79089,"longitude":10.6967},"attribution":[{"name":"Luftkvalitet.info","url":"http://www.luftkvalitet.info/home.aspx"}],"sourceName":"Norway","sourceType":"government","mobile":false}
{"date":{"utc":"2018-11-09T23:45:00.000Z","local":"2018-11-10T05:15:00+05:30"},"parameter":"o3","value":12.3,"unit":"µg/m³","averagingPeriod":{"unit":"hours","value":0.25},"location":"Vasundhara, Ghaziabad, UP - UPPCB","city":"Ghaziabad","country":"IN","coordinates":{"latitude":28.6603346,"longitude":77.3572563},"attribution":[{"name":"Central Pollution Control Board","url":"https://app.cpcbccr.com/ccr/#/caaqm-dashboard-all/caaqm-landing"}],"sourceName":"caaqm","sourceType":"government","mobile":false}
{"date":{"utc":"2018-11-10T00:00:00.000Z","local":"2018-11-10T01:00:00+01:00"},"parameter":"pm25","value":4,"unit":"µg/m³","averagingPeriod":{"unit":"hours","value":1},"location":"Elgeseter","city":"Trondheim","country":"NO","coordinates":{"latitude":63.419239,"longitude":10.395945},"attribution":[{"name":"Luftkvalitet.info","url":"http://www.luftkvalitet.info/home.aspx"}],"sourceName":"Norway","sourceType":"government","mobile":false}
{"date":{"utc":"2018-01-03T00:00:00.000Z","local":"2018-01-03T08:00:00+08:00"},"parameter":"so2","value":21,"unit":"µg/m³","averagingPeriod":{"value":0.3,"unit":"hours"},"location":"УБ-3","city":"Ulaanbaatar","country":"MN","coordinates":{"latitude":47.91786111111111,"longitude":106.84806111111111},"attribution":[{"name":"Tsag-Agaar.gov.mn","url":"http://tsag-agaar.gov.mn"},{"name":"National Agency of Meteorology and Environmental Monitoring","url":"http://namem.gov.mn"}],"sourceName":"Tsag-Agaar.gov.mn","sourceType":"government","mobile":false}
{"date":{"utc":"2018-01-04T00:00:00.000Z","local":"2018-01-04T08:00:00+08:00"},"parameter":"no2","value":27,"unit":"µg/m³","averagingPeriod":{"value":0.3,"unit":"hours"},"location":"УБ-3","city":"Ulaanbaatar","country":"MN","coordinates":{"latitude":47.91786111111111,"longitude":106.84806111111111},"attribution":[{"name":"Tsag-Agaar.gov.mn","url":"http://tsag-agaar.gov.mn"},{"name":"National Agency of Meteorology and Environmental Monitoring","url":"http://namem.gov.mn"}],"sourceName":"Tsag-Agaar.gov.mn","sourceType":"government","mobile":false}
{"date":{"utc":"2018-11-10T00:00:00.000Z","local":"2018-11-10T01:00:00+01:00"},"parameter":"pm10","value":27.6334991,"unit":"µg/m³","averagingPeriod":{"unit":"hours","value":1},"location":"Elgeseter","city":"Trondheim","country":"NO","coordinates":{"latitude":63.419239,"longitude":10.395945},"attribution":[{"name":"Luftkvalitet.info","url":"http://www.luftkvalitet.info/home.aspx"}],"sourceName":"Norway","sourceType":"government","mobile":false}
{"date":{"utc":"2018-01-04T00:00:00.000Z","local":"2018-01-04T08:00:00+08:00"},"parameter":"so2","value":19,"unit":"µg/m³","averagingPeriod":{"value":0.3,"unit":"hours"},"location":"УБ-3","city":"Ulaanbaatar","country":"MN","coordinates":{"latitude":47.91786111111111,"longitude":106.84806111111111},"attribution":[{"name":"Tsag-Agaar.gov.mn","url":"http://tsag-agaar.gov.mn"},{"name":"National Agency of Meteorology and Environmental Monitoring","url":"http://namem.gov.mn"}],"sourceName":"Tsag-Agaar.gov.mn","sourceType":"government","mobile":false}
{"date":{"utc":"2018-11-10T00:00:00.000Z","local":"2018-11-10T01:00:00+01:00"},"parameter":"pm25","value":4.9,"unit":"µg/m³","averagingPeriod":{"unit":"hours","value":1},"location":"St.Croix","city":"Fredrikstad","country":"NO","coordinates":{"latitude":59.2103,"longitude":10.9454},"attribution":[{"name":"Luftkvalitet.info","url":"http://www.luftkvalitet.info/home.aspx"}],"sourceName":"Norway","sourceType":"government","mobile":false}
{"date":{"utc":"2018-01-05T00:00:00.000Z","local":"2018-01-05T08:00:00+08:00"},"parameter":"no2","value":32,"unit":"µg/m³","averagingPeriod":{"value":0.3,"unit":"hours"},"location":"УБ-3","city":"Ulaanbaatar","country":"MN","coordinates":{"latitude":47.91786111111111,"longitude":106.84806111111111},"attribution":[{"name":"Tsag-Agaar.gov.mn","url":"http://tsag-agaar.gov.mn"},{"name":"National Agency of Meteorology and Environmental Monitoring","url":"http://namem.gov.mn"}],"sourceName":"Tsag-Agaar.gov.mn","sourceType":"government","mobile":false}
{"date":{"utc":"2018-01-05T00:00:00.000Z","local":"2018-01-05T08:00:00+08:00"},"parameter":"so2","value":16,"unit":"µg/m³","averagingPeriod":{"value":0.3,"unit":"hours"},"location":"УБ-3","city":"Ulaanbaatar","country":"MN","coordinates":{"latitude":47.91786111111111,"longitude":106.84806111111111},"attribution":[{"name":"Tsag-Agaar.gov.mn","url":"http://tsag-agaar.gov.mn"},{"name":"National Agency of Meteorology and Environmental Monitoring","url":"http://namem.gov.mn"}],"sourceName":"Tsag-Agaar.gov.mn","sourceType":"government","mobile":false}
{"date":{"utc":"2018-11-10T00:00:00.000Z","local":"2018-11-10T01:00:00+01:00"},"parameter":"pm10","value":3.4587583333,"unit":"µg/m³","averagingPeriod":{"unit":"hours","value":1},"location":"Nygaardsgata","city":"Fredrikstad","country":"NO","coordinates":{"latitude":59.210191,"longitude":10.940097},"attribution":[{"name":"Luftkvalitet.info","url":"http://www.luftkvalitet.info/home.aspx"}],"sourceName":"Norway","sourceType":"government","mobile":false}
{"date":{"utc":"2018-01-06T00:00:00.000Z","local":"2018-01-06T08:00:00+08:00"},"parameter":"no2","value":65,"unit":"µg/m³","averagingPeriod":{"value":0.3,"unit":"hours"},"location":"УБ-3","city":"Ulaanbaatar","country":"MN","coordinates":{"latitude":47.91786111111111,"longitude":106.84806111111111},"attribution":[{"name":"Tsag-Agaar.gov.mn","url":"http://tsag-agaar.gov.mn"},{"name":"National Agency of Meteorology and Environmental Monitoring","url":"http://namem.gov.mn"}],"sourceName":"Tsag-Agaar.gov.mn","sourceType":"government","mobile":false}
{"date":{"utc":"2018-11-10T00:00:00.000Z","local":"2018-11-10T01:00:00+01:00"},"parameter":"no2","value":2.0723723317,"unit":"µg/m³","averagingPeriod":{"unit":"hours","value":1},"location":"Våland","city":"Stavanger","country":"NO","coordinates":{"latitude":58.96173,"longitude":5.73147},"attribution":[{"name":"Luftkvalitet.info","url":"http://www.luftkvalitet.info/home.aspx"}],"sourceName":"Norway","sourceType":"government","mobile":false}
{"date":{"utc":"2018-01-06T00:00:00.000Z","local":"2018-01-06T08:00:00+08:00"},"parameter":"so2","value":34,"unit":"µg/m³","averagingPeriod":{"value":0.3,"unit":"hours"},"location":"УБ-3","city":"Ulaanbaatar","country":"MN","coordinates":{"latitude":47.91786111111111,"longitude":106.84806111111111},"attribution":[{"name":"Tsag-Agaar.gov.mn","url":"http://tsag-agaar.gov.mn"},{"name":"National Agency of Meteorology and Environmental Monitoring","url":"http://namem.gov.mn"}],"sourceName":"Tsag-Agaar.gov.mn","sourceType":"government","mobile":false}
{"date":{"utc":"2018-01-07T00:00:00.000Z","local":"2018-01-07T08:00:00+08:00"},"parameter":"no2","value":46,"unit":"µg/m³","averagingPeriod":{"value":0.3,"unit":"hours"},"location":"УБ-3","city":"Ulaanbaatar","country":"MN","coordinates":{"latitude":47.91786111111111,"longitude":106.84806111111111},"attribution":[{"name":"Tsag-Agaar.gov.mn","url":"http://tsag-agaar.gov.mn"},{"name":"National Agency of Meteorology and Environmental Monitoring","url":"http://namem.gov.mn"}],"sourceName":"Tsag-Agaar.gov.mn","sourceType":"government","mobile":false}
{"date":{"utc":"2018-11-10T00:00:00.000Z","local":"2018-11-10T01:00:00+01:00"},"parameter":"pm25","value":8.9166184,"unit":"µg/m³","averagingPeriod":{"unit":"hours","value":1},"location":"E6-Tiller","city":"Trondheim","country":"NO","coordinates":{"latitude":63.3576,"longitude":10.3719},"attribution":[{"name":"Luftkvalitet.info","url":"http://www.luftkvalitet.info/home.aspx"}],"sourceName":"Norway","sourceType":"government","mobile":false}
{"date":{"utc":"2018-01-07T00:00:00.000Z","local":"2018-01-07T08:00:00+08:00"},"parameter":"so2","value":34,"unit":"µg/m³","averagingPeriod":{"value":0.3,"unit":"hours"},"location":"УБ-3","city":"Ulaanbaatar","country":"MN","coordinates":{"latitude":47.91786111111111,"longitude":106.84806111111111},"attribution":[{"name":"Tsag-Agaar.gov.mn","url":"http://tsag-agaar.gov.mn"},{"name":"National Agency of Meteorology and Environmental Monitoring","url":"http://namem.gov.mn"}],"sourceName":"Tsag-Agaar.gov.mn","sourceType":"government","mobile":false}
{"date":{"utc":"2018-11-10T00:00:00.000Z","local":"2018-11-10T01:00:00+01:00"},"parameter":"pm10","value":10.4037805,"unit":"µg/m³","averagingPeriod":{"unit":"hours","value":1},"location":"E6-Tiller","city":"Trondheim","country":"NO","coordinates":{"latitude":63.3576,"longitude":10.3719},"attribution":[{"name":"Luftkvalitet.info","url":"http://www.luftkvalitet.info/home.aspx"}],"sourceName":"Norway","sourceType":"government","mobile":false}
{"date":{"utc":"2018-01-08T00:00:00.000Z","local":"2018-01-08T08:00:00+08:00"},"parameter":"no2","value":43,"unit":"µg/m³","averagingPeriod":{"value":0.3,"unit":"hours"},"location":"УБ-3","city":"Ulaanbaatar","country":"MN","coordinates":{"latitude":47.91786111111111,"longitude":106.84806111111111},"attribution":[{"name":"Tsag-Agaar.gov.mn","url":"http://tsag-agaar.gov.mn"},{"name":"National Agency of Meteorology and Environmental Monitoring","url":"http://namem.gov.mn"}],"sourceName":"Tsag-Agaar.gov.mn","sourceType":"government","mobile":false}
{"date":{"utc":"2018-01-08T00:00:00.000Z","local":"2018-01-08T08:00:00+08:00"},"parameter":"so2","value":42,"unit":"µg/m³","averagingPeriod":{"value":0.3,"unit":"hours"},"location":"УБ-3","city":"Ulaanbaatar","country":"MN","coordinates":{"latitude":47.91786111111111,"longitude":106.84806111111111},"attribution":[{"name":"Tsag-Agaar.gov.mn","url":"http://tsag-agaar.gov.mn"},{"name":"National Agency of Meteorology and Environmental Monitoring","url":"http://namem.gov.mn"}],"sourceName":"Tsag-Agaar.gov.mn","sourceType":"government","mobile":false}
{"date":{"utc":"2018-11-10T00:00:00.000Z","local":"2018-11-10T01:00:00+01:00"},"parameter":"no2","value":18.5095301536,"unit":"µg/m³","averagingPeriod":{"unit":"hours","value":1},"location":"Hjortnes","city":"Oslo","country":"NO","coordinates":{"latitude":59.91132,"longitude":10.70407},"attribution":[{"name":"Luftkvalitet.info","url":"http://www.luftkvalitet.info/home.aspx"}],"sourceName":"Norway","sourceType":"government","mobile":false}
{"date":{"utc":"2018-11-09T23:00:00.000Z","local":"2018-11-09T20:00:00-03:00"},"parameter":"pm25","value":6,"unit":"µg/m³","location":"Los Ángeles Oriente","city":"Los Angeles","country":"CL","coordinates":{"latitude":-37.463035064801,"longitude":-72.324575155457},"attribution":[{"name":"SINCA","url":"http://sinca.mma.gob.cl/"},{"name":"Sub Secretaría del Medio Ambiente"}],"sourceName":"Chile - SINCA","sourceType":"government","mobile":false}
{"date":{"utc":"2018-11-10T00:00:00.000Z","local":"2018-11-10T01:00:00+01:00"},"parameter":"no2","value":17.675334224,"unit":"µg/m³","averagingPeriod":{"unit":"hours","value":1},"location":"Gartnerløkka","city":"Kristiansand","country":"NO","coordinates":{"latitude":58.14703,"longitude":7.98662},"attribution":[{"name":"Luftkvalitet.info","url":"http://www.luftkvalitet.info/home.aspx"}],"sourceName":"Norway","sourceType":"government","mobile":false}
{"date":{"utc":"2018-11-10T00:00:00.000Z","local":"2018-11-10T01:00:00+01:00"},"parameter":"pm10","value":12.9,"unit":"µg/m³","averagingPeriod":{"unit":"hours","value":1},