{"date":{"utc":"2018-11-10T00:00:00.000Z","local":"2018-11-10T08:00:00+08:00"},"parameter":"no2","value":21,"unit":"µg/m³","averagingPeriod":{"value":1,"unit":"hours"},"location":"Central/Western","city":"Central & Western","country":"HK","coordinates":{"longitude":114.14444444444445,"latitude":22.285},"attribution":[{"name":"Environmental Protection Department","url":"https://data.gov.hk/en-data/dataset/hk-epd-airteam-past24hr-pc-of-individual-air-quality-monitoring-stations"}],"sourceName":"Hong Kong","sourceType":"government","mobile":false}
{"date":{"utc":"2018-11-10T00:00:00.000Z","local":"2018-11-10T08:00:00+08:00"},"parameter":"o3","value":59.7,"unit":"µg/m³","averagingPeriod":{"value":1,"unit":"hours"},"location":"Central/Western","city":"Central & Western","country":"HK","coordinates":{"longitude":114.14444444444445,"latitude":22.285},"attribution":[{"name":"Environmental Protection Department","url":"https://data.gov.hk/en-data/dataset/hk-epd-airteam-past24hr-pc-of-individual-air-quality-monitoring-stations"}],"sourceName":"Hong Kong","sourceType":"government","mobile":false}
{"date":{"utc":"2018-11-10T00:00:00.000Z","local":"2018-11-10T08:00:00+08:00"},"parameter":"so2","value":3.4,"unit":"µg/m³","averagingPeriod":{"value":1,"unit":"hours"},"location":"Central/Western","city":"Central & Western","country":"HK","coordinates":{"longitude":114.14444444444445,"latitude":22.285},"attribution":[{"name":"Environmental Protection Department","url":"https://data.gov.hk/en-data/dataset/hk-epd-airteam-past24hr-pc-of-individual-air-quality-monitoring-stations"}],"sourceName":"Hong Kong","sourceType":"government","mobile":false}
{"date":{"utc":"2018-11-09T23:00:00.000Z","local":"2018-11-10T00:00:00+01:00"},"parameter":"no2","value":26,"unit":"µg/m³","averagingPeriod":{"unit":"hours","value":1},"location":"AD0942A","city":"Escaldes-Engordany","country":"AD","coordinates":{"latitude":42.5096939994651,"longitude":1.539138},"attribution":[{"name":"EEA","url":"http://www.eea.europa.eu/themes/air/air-quality"}],"sourceName":"EEA Andorra","sourceType":"government","mobile":false}
{"date":{"utc":"2018-11-10T00:00:00.000Z","local":"2018-11-10T01:00:00+01:00"},"parameter":"co","value":250,"unit":"µg/m³","averagingPeriod":{"unit":"hours","value":1},"location":"DK0034A","city":"Hovedstaden","country":"DK","coordinates":{"latitude":55.6743033303032,"longitude":12.571113917497},"attribution":[{"name":"EEA","url":"http://www.eea.europa.eu/themes/air/air-quality"}],"sourceName":"EEA Denmark","sourceType":"government","mobile":false}
{"date":{"utc":"2018-11-09T21:00:00.000Z","local":"2018-11-09T21:00:00+00:00"},"parameter":"o3","value":0,"unit":"µg/m³","averagingPeriod":{"unit":"hours","value":1},"location":"PT01044","city":"Porto","country":"PT","coordinates":{"latitude":41.274167,"longitude":-8.376111},"attribution":[{"name":"EEA","url":"http://www.eea.europa.eu/themes/air/air-quality"}],"sourceName":"EEA Portugal","sourceType":"government","mobile":false}
{"date":{"utc":"2018-11-09T22:00:00.000Z","local":"2018-11-09T23:00:00+01:00"},"parameter":"co","value":411,"unit":"µg/m³","averagingPeriod":{"unit":"hours","value":1},"location":"CZ0ALEG","city":"Hlavní město Praha","country":"CZ","coordinates":{"latitude":50.0723876953125,"longitude":14.4306726455688},"attribution":[{"name":"EEA","url":"http://www.eea.europa.eu/themes/air/air-quality"}],"sourceName":"EEA Czech Republic","sourceType":"government","mobile":false}
{"date":{"utc":"2018-11-10T00:00:00.000Z","local":"2018-11-10T10:00:00+10:00"},"parameter":"no2","value":0.001,"unit":"ppm","averagingPeriod":{"value":1,"unit":"hours"},"location":"Mountain Creek","city":"South East Queensland","country":"AU","coordinates":{"latitude":-26.6917,"longitude":153.104},"attribution":[{"name":"Department of Environment and Heritage Protection","url":"https://data.qld.gov.au/dataset/air-quality-monitoring-live-data-feed/resource/50410fbe-8766-45cd-a259-c4c1f3c89dd1"},{"name":"Department of Environment and Heritage Protection","url":"http://www.qld.gov.au/environment/pollution/monitoring/air-monitoring/seq/#mountaincreek"}],"sourceName":"Australia - Queensland","sourceType":"government","mobile":false}
{"date":{"utc":"2018-11-09T23:00:00.000Z","local":"2018-11-10T00:00:00+01:00"},"parameter":"no2","value":57.6620975,"unit":"µg/m³","averagingPeriod":{"unit":"hours","value":1},"location":"HU0045A","city":"Budapest","country":"HU","coordinates":{"latitude":47.4919433594653,"longitude":19.08778191},"attribution":[{"name":"EEA","url":"http://www.eea.europa.eu/themes/air/air-quality"}],"sourceName":"EEA Hungary","sourceType":"government","mobile":false}
{"date":{"utc":"2018-11-09T23:00:00.000Z","local":"2018-11-09T23:00:00+00:00"},"parameter":"o3","value":67.00333,"unit":"µg/m³","averagingPeriod":{"unit":"hours","value":1},"location":"IE0141A","city":"Wicklow","country":"IE","coordinates":{"latitude":53.187222,"longitude":-6.121667},"attribution":[{"name":"EEA","url":"http://www.eea.europa.eu/themes/air/air-quality"}],"sourceName":"EEA Ireland","sourceType":"government","mobile":false}
{"date":{"utc":"2018-11-09T22:00:00.000Z","local":"2018-11-10T00:00:00+02:00"},"parameter":"co","value":0.3,"unit":"µg/m³","averagingPeriod":{"unit":"hours","value":1},"location":"LV0012A","city":"Liepaja","country":"LV","coordinates":{"latitude":56.5231749995064,"longitude":21.004694},"attribution":[{"name":"EEA","url":"http://www.eea.europa.eu/themes/air/air-quality"}],"sourceName":"EEA Latvia","sourceType":"government","mobile":false}
{"date":{"utc":"2018-11-09T22:00:00.000Z","local":"2018-11-09T23:00:00+01:00"},"parameter":"pm25","value":44.2765,"unit":"µg/m³","averagingPeriod":{"unit":"hours","value":1},"location":"MK0047A","city":"Centar Municipality","country":"MK","coordinates":{"latitude":41.991999999466,"longitude":21.423},"attribution":[{"name":"EEA","url":"http://www.eea.europa.eu/themes/air/air-quality"}],"sourceName":"EEA Macedonia","sourceType":"government","mobile":false}
{"date":{"utc":"2018-11-10T00:00:00.000Z","local":"2018-11-10T01:00:00+01:00"},"parameter":"pm10","value":101.1,"unit":"µg/m³","averagingPeriod":{"unit":"hours","value":1},"location":"MT00005","city":"Msida","country":"MT","coordinates":{"latitude":35.8958358794896,"longitude":14.48998642},"attribution":[{"name":"EEA","url":"http://www.eea.europa.eu/themes/air/air-quality"}],"sourceName":"EEA Malta","sourceType":"government","mobile":false}
{"date":{"utc":"2018-11-09T23:00:00.000Z","local":"2018-11-10T00:00:00+01:00"},"parameter":"co","value":756.668,"unit":"µg/m³","averagingPeriod":{"unit":"hours","value":1},"location":"SK0214A","city":"Banskobystrický kraj","country":"SK","coordinates":{"latitude":48.7350006094679,"longitude":19.15499878},"attribution":[{"name":"EEA","url":"http://www.eea.europa.eu/themes/air/air-quality"}],"sourceName":"EEA Slovakia","sourceType":"government","mobile":false}
{"date":{"utc":"2018-11-09T23:00:00.000Z","local":"2018-11-10T00:00:00+01:00"},"parameter":"no2","value":24.61902,"unit":"µg/m³","averagingPeriod":{"unit":"hours","value":1},"location":"RS0032A","city":"Grad Beograd","country":"RS","coordinates":{"latitude":44.82112,"longitude":20.459113},"attribution":[{"name":"EEA","url":"http://www.eea.europa.eu/themes/air/air-quality"}],"sourceName":"EEA Servia","sourceType":"government","mobile":false}
{"date":{"utc":"2018-11-09T23:00:00.000Z","local":"2018-11-10T10:00:00+11:00"},"parameter":"o3","value":0.036000000000000004,"unit":"ppm","averagingPeriod":{"value":1,"unit":"hours"},"location":"Randwick","city":"Sydney East","country":"AU","coordinates":{"latitude":-33.9333333,"longitude":151.2419444},"attribution":[{"name":"NSW - Office of Environment & Heritage","url":"http://www.environment.nsw.gov.au/"}],"sourceName":"Australia - New South Wales","sourceType":"government","mobile":false}
{"date":{"utc":"2018-11-09T23:00:00.000Z","local":"2018-11-10T00:00:00+01:00"},"parameter":"so2","value":0.4729,"unit":"µg/m³","averagingPeriod":{"unit":"hours","value":1},"location":"CH0013A","city":"Zürich","country":"CH","coordinates":{"latitude":47.3868011852188,"longitude":8.53980729902371},"attribution":[{"name":"EEA","url":"http://www.eea.europa.eu/themes/air/air-quality"}],"sourceName":"EEA Switzerland","sourceType":"government","mobile":false}
{"date":{"utc":"2018-11-10T00:00:00.000Z","local":"2018-11-10T08:00:00+08:00"},"parameter":"pm25","value":15,"unit":"µg/m³","averagingPeriod":{"value":1,"unit":"hours"},"location":"Shenyang","city":"Shenyang","country":"CN","coordinates":{"latitude":41.78,"longitude":123.42},"attribution":[{"name":"StateAir.net","url":"http://www.stateair.net/web/post/1/5.html"}],"sourceName":"Shenyang","sourceType":"government","mobile":false}
{"date":{"utc":"2018-11-10T00:00:00.000Z","local":"2018-11-10T08:00:00+08:00"},"parameter":"pm10","value":35.7,"unit":"µg/m³","averagingPeriod":{"value":1,"unit":"hours"},"location":"Central/Western","city":"Central & Western","country":"HK","coordinates":{"longitude":114.14444444444445,"latitude":22.285},"attribution":[{"name":"Environmental Protection Department","url":"https://data.gov.hk/en-data/dataset/hk-epd-airteam-past24hr-pc-of-individual-air-quality-monitoring-stations"}],"sourceName":"Hong Kong","sourceType":"government","mobile":false}
{"date":{"utc":"2018-11-10T00:00:00.000Z","local":"2018-11-10T10:00:00+10:00"},"parameter":"o3","value":0.028,"unit":"ppm","averagingPeriod":{"value":1,"unit":"hours"},"location":"Mountain Creek","city":"South East Queensland","country":"AU","coordinates":{"latitude":-26.6917,"longitude":153.104},"attribution":[{"name":"Department of Environment and Heritage Protection","url":"https://data.qld.gov.au/dataset/air-quality-monitoring-live-data-feed/resource/50410fbe-8766-45cd-a259-c4c1f3c89dd1"},{"name":"Department of Environment and Heritage Protection","url":"http://www.qld.gov.au/environment/pollution/monitoring/air-monitoring/seq/#mountaincreek"}],"sourceName":"Australia - Queensland","sourceType":"government","mobile":false}
{"date":{"utc":"2018-11-10T00:00:00.000Z","local":"2018-11-10T08:00:00+08:00"},"parameter":"pm25","value":54,"unit":"µg/m³","averagingPeriod":{"value":1,"unit":"hours"},"location":"Shanghai","city":"Shanghai","country":"CN","coordinates":{"latitude":31.21,"longitude":121.44},"attribution":[{"name":"StateAir.net","url":"http://www.stateair.net/web/post/1/4.html"}],"sourceName":"Shanghai","sourceType":"government","mobile":false}
{"date":{"utc":"2018-11-09T23:00:00.000Z","local":"2018-11-10T00:00:00+01:00"},"parameter":"pm10","value":42,"unit":"µg/m³","averagingPeriod":{"unit":"hours","value":1},"location":"AD0942A","city":"Escaldes-Engordany","country":"AD","coordinates":{"latitude":42.5096939994651,"longitude":1.539138},"attribution":[{"name":"EEA","url":"http://www.eea.europa.eu/themes/air/air-quality"}],"sourceName":"EEA Andorra","sourceType":"government","mobile":false}
{"date":{"utc":"2018-11-09T22:00:00.000Z","local":"2018-11-09T23:00:00+01:00"},"parameter":"no2","value":35.06346,"unit":"µg/m³","averagingPeriod":{"unit":"hours","value":1},"location":"RS0032A","city":"Grad Beograd","country":"RS","coordinates":{"latitude":44.82112,"longitude":20.459113},"attribution":[{"name":"EEA","url":"http://www.eea.europa.eu/themes/air/air-quality"}],"sourceName":"EEA Servia","sourceType":"government","mobile":false}
{"date":{"utc":"2018-11-10T00:00:00.000Z","local":"2018-11-10T08:00:00+08:00"},"parameter":"pm25","value":23.8,"unit":"µg/m³","averagingPeriod":{"value":1,"unit":"hours"},"location":"Central/Western","city":"Central & Western","country":"HK","coordinates":{"longitude":114.14444444444445,"latitude":22.285},"attribution":[{"name":"Environmental Protection Department","url":"https://data.gov.hk/en-data/dataset/hk-epd-airteam-past24hr-pc-of-individual-air-quality-monitoring-stations"}],"sourceName":"Hong Kong","sourceType":"government","mobile":false}
{"date":{"utc":"2018-11-10T00:00:00.000Z","local":"2018-11-10T01:00:00+01:00"},"parameter":"co","value":210,"unit":"µg/m³","averagingPeriod":{"unit":"hours","value":1},"location":"DK0045A","city":"Hovedstaden","country":"DK","coordinates":{"latitude":55.7002810664676,"longitude":12.5614121124285},"attribution":[{"name":"EEA","url":"http://www.eea.europa.eu/themes/air/air-quality"}],"sourceName":"EEA Denmark","sourceType":"government","mobile":false}
{"date":{"utc":"2018-11-09T21:00:00.000Z","local":"2018-11-09T21:00:00+00:00"},"parameter":"o3","value":66,"unit":"µg/m³","averagingPeriod":{"unit":"hours","value":1},"location":"PT01047","city":"Viana do Castelo","country":"PT","coordinates":{"latitude":41.802222,"longitude":-8.693889},"attribution":[{"name":"EEA","url":"http://www.eea.europa.eu/themes/air/air-quality"}],"sourceName":"EEA Portugal","sourceType":"government","mobile":false}
{"date":{"utc":"2018-11-09T23:00:00.000Z","local":"2018-11-10T10:00:00+11:00"},"parameter":"no2","value":0.001,"unit":"ppm","averagingPeriod":{"value":1,"unit":"hours"},"location":"Randwick","city":"Sydney East","country":"AU","coordinates":{"latitude":-33.9333333,"longitude":151.2419444},"attribution":[{"name":"NSW - Office of Environment & Heritage","url":"http://www.environment.nsw.gov.au/"}],"sourceName":"Australia - New South Wales","sourceType":"government","mobile":false}
{"date":{"utc":"2018-11-09T23:00:00.000Z","local":"2018-11-10T01:00:00+02:00"},"parameter":"co","value":0.28,"unit":"µg/m³","averagingPeriod":{"unit":"hours","value":1},"location":"LV0012A","city":"Liepaja","country":"LV","coordinates":{"latitude":56.5231749995064,"longitude":21.004694},"attribution":[{"name":"EEA","url":"http://www.eea.europa.eu/themes/air/air-quality"}],"sourceName":"EEA Latvia","sourceType":"government","mobile":false}
{"date":{"utc":"2018-11-09T22:00:00.000Z","local":"2018-11-09T23:00:00+01:00"},"parameter":"pm25","value":37.8,"unit":"µg/m³","averagingPeriod":{"unit":"hours","value":1},"location":"HR0012A","city":"Krapinsko-zagorska","country":"HR","coordinates":{"latitude":46.1690555550192,"longitude":15.6606388888889},"attribution":[{"name":"EEA","url":"http://www.eea.europa.eu/themes/air/air-quality"}],"sourceName":"EEA Croatia","sourceType":"government","mobile":false}
{"date":{"utc":"2018-11-09T22:00:00.000Z","local":"2018-11-09T23:00:00+01:00"},"parameter":"co","value":228.00002,"unit":"µg/m³","averagingPeriod":{"unit":"hours","value":1},"location":"CZ0SBER","city":"Středočeský","country":"CZ","coordinates":{"latitude":49.9579277038574,"longitude":14.0583000183105},"attribution":[{"name":"EEA","url":"http://www.eea.europa.eu/themes/air/air-quality"}],"sourceName":"EEA Czech Republic","sourceType":"government","mobile":false}
{"date":{"utc":"2018-11-09T22:00:00.000Z","local":"2018-11-09T23:00:00+01:00"},"parameter":"pm25","value":114.238,"unit":"µg/m³","averagingPeriod":{"unit":"hours","value":1},"location":"MK0048A","city":"Karpos Municipality","country":"MK","coordinates":{"latitude":42.0059999994659,"longitude":21.387},"attribution":[{"name":"EEA","url":"http://www.eea.europa.eu/themes/air/air-quality"}],"sourceName":"EEA Macedonia","sourceType":"government","mobile":false}
{"date":{"utc":"2018-11-09T23:00:00.000Z","local":"2018-11-10T00:00:00+01:00"},"parameter":"no2","value":42.9731,"unit":"µg/m³","averagingPeriod":{"unit":"hours","value":1},"location":"HU0042A","city":"Budapest","country":"HU","coordinates":{"latitude":47.5419439994654,"longitude":19.146122},"attribution":[{"name":"EEA","url":"http://www.eea.europa.eu/themes/air/air-quality"}],"sourceName":"EEA Hungary","sourceType":"government","mobile":false}
{"date":{"utc":"2018-11-09T23:00:00.000Z","local":"2018-11-10T00:00:00+01:00"},"parameter":"so2","value":0.0192,"unit":"µg/m³","averagingPeriod":{"unit":"hours","value":1},"location":"CH0002R","city":"Vaud","country":"CH","coordinates":{"latitude":46.8130974472165,"longitude":6.94448020280301},"attribution":[{"name":"EEA","url":"http://www.eea.europa.eu/themes/air/air-quality"}],"sourceName":"EEA Switzerland","sourceType":"government","mobile":false}
{"date":{"utc":"2018-11-09T23:00:00.000Z","local":"2018-11-09T23:00:00+00:00"},"parameter":"o3","value":50.8296334,"unit":"µg/m³","averagingPeriod":{"unit":"hours","value":1},"location":"IE0028A","city":"Dublin City","country":"IE","coordinates":{"latitude":53.353889,"longitude":-6.278056},"attribution":[{"name":"EEA","url":"http://www.eea.europa.eu/themes/air/air-quality"}],"sourceName":"EEA Ireland","sourceType":"government","mobile":false}
{"date":{"utc":"2018-11-10T00:00:00.000Z","local":"2018-11-10T01:00:00+01:00"},"parameter":"pm10","value":1,"unit":"µg/m³","averagingPeriod":{"unit":"hours","value":1},"location":"MT00004","city":"Zejtun (Citta' Beland)","country":"MT","coordinates":{"latitude":35.8522911094898,"longitude":14.53898621},"attribution":[{"name":"EEA","url":"http://www.eea.europa.eu/themes/air/air-quality"}],"sourceName":"EEA Malta","sourceType":"government","mobile":false}
{"date":{"utc":"2018-11-09T23:00:00.000Z","local":"2018-11-10T00:00:00+01:00"},"parameter":"co","value":387.324,"unit":"µg/m³","averagingPeriod":{"unit":"hours","value":1},"location":"SK0018A","city":"Košický kraj","country":"SK","coordinates":{"latitude":48.5922203094675,"longitude":21.17528534},"attribution":[{"name":"EEA","url":"http://www.eea.europa.eu/themes/air/air-quality"}],"sourceName":"EEA Slovakia","sourceType":"government","mobile":false}
{"date":{"utc":"2018-11-09T23:00:00.000Z","local":"2018-11-10T00:00:00+01:00"},"parameter":"pm10","value":43.28667,"unit":"µg/m³","averagingPeriod":{"unit":"hours","value":1},"location":"RS0036A","city":"Grad Beograd","country":"RS","coordinates":{"latitude":44.803179,"longitude":20.400152},"attribution":[{"name":"EEA","url":"http://www.eea.europa.eu/themes/air/air-quality"}],"sourceName":"EEA Servia","sourceType":"government","mobile":false}
{"date":{"utc":"2018-11-09T23:00:00.000Z","local":"2018-11-10T00:00:00+01:00"},"parameter":"co","value":200,"unit":"µg/m³","averagingPeriod":{"unit":"hours","value":1},"location":"AD0942A","city":"Escaldes-Engordany","country":"AD","coordinates":{"latitude":42.5096939994651,"longitude":1.539138},"attribution":[{"name":"EEA","url":"http://www.eea.europa.eu/themes/air/air-quality"}],"sourceName":"EEA Andorra","sourceType":"government","mobile":false}
{"date":{"utc":"2018-11-09T23:00:00.000Z","local":"2018-11-10T01:00:00+02:00"},"parameter":"o3","value":43.1428667,"unit":"µg/m³","averagingPeriod":{"unit":"hours","value":1},"location":"FI00352","city":"Northern Ostrobothnia","country":"FI","coordinates":{"latitude":66.3216999996054,"longitude":29.40157},"attribution":[{"name":"EEA","url":"http://www.eea.europa.eu/themes/air/air-quality"}],"sourceName":"EEA Finland","sourceType":"government","mobile":false}
{"date":{"utc":"2018-11-10T00:00:00.000Z","local":"2018-11-10T10:00:00+10:00"},"parameter":"pm10","value":21.4,"unit":"µg/m³","averagingPeriod":{"value":1,"unit":"hours"},"location":"Mountain Creek","city":"South East Queensland","country":"AU","coordinates":{"latitude":-26.6917,"longitude":153.104},"attribution":[{"name":"Department of Environment and Heritage Protection","url":"https://data.qld.gov.au/dataset/air-quality-monitoring-live-data-feed/resource/50410fbe-8766-45cd-a259-c4c1f3c89dd1"},{"name":"Department of Environment and Heritage Protection","url":"http://www.qld.gov.au/environment/pollution/monitoring/air-monitoring/seq/#mountaincreek"}],"sourceName":"Australia - Queensland","sourceType":"government","mobile":false}
{"date":{"utc":"2018-11-09T23:00:00.000Z","local":"2018-11-10T00:00:00+01:00"},"parameter":"co","value":740.66,"unit":"µg/m³","averagingPeriod":{"unit":"hours","value":1},"location":"SK0047A","city":"Trenciansky kraj","country":"SK","coordinates":{"latitude":48.8963890094683,"longitude":18.04139328},"attribution":[{"name":"EEA","url":"http://www.eea.europa.eu/themes/air/air-quality"}],"sourceName":"EEA Slovakia","sourceType":"government","mobile":false}
{"date":{"utc":"2018-11-10T00:00:00.000Z","local":"2018-11-10T01:00:00+01:00"},"parameter":"co","value":1800,"unit":"µg/m³","averagingPeriod":{"unit":"hours","value":1},"location":"MT00005","city":"Msida","country":"MT","coordinates":{"latitude":35.8958358794896,"longitude":14.48998642},"attribution":[{"name":"EEA","url":"http://www.eea.europa.eu/themes/air/air-quality"}],"sourceName":"EEA Malta","sourceType":"government","mobile":false}
{"date":{"utc":"2018-11-09T23:00:00.000Z","local":"2018-11-09T23:00:00+00:00"},"parameter":"no2","value":25.71868002,"unit":"µg/m³","averagingPeriod":{"unit":"hours","value":1},"location":"IE0098A","city":"Dublin City","country":"IE","coordinates":{"latitude":53.341667,"longitude":-6.288889},"attribution":[{"name":"EEA","url":"http://www.eea.europa.eu/themes/air/air-quality"}],"sourceName":"EEA Ireland","sourceType":"government","mobile":false}
{"date":{"utc":"2018-11-09T23:00:00.000Z","local":"2018-11-10T00:00:00+01:00"},"parameter":"so2","value":0.2186,"unit":"µg/m³","averagingPeriod":{"unit":"hours","value":1},"location":"CH0005R","city":"Schwyz","country":"CH","coordinates":{"latitude":47.0673852211321,"longitude":8.46333371888661},"attribution":[{"name":"EEA","url":"http://www.eea.europa.eu/themes/air/air-quality"}],"sourceName":"EEA Switzerland","sourceType":"government","mobile":false}
{"date":{"utc":"2018-11-09T23:00:00.000Z","local":"2018-11-10T00:00:00+01:00"},"parameter":"no2","value":40.00265,"unit":"µg/m³","averagingPeriod":{"unit":"hours","value":1},"location":"HU0057A","city":"Csongrád","country":"HU","coordinates":{"latitude":46.2666139994637,"longitude":20.153053},"attribution":[{"name":"EEA","url":"http://www.eea.europa.eu/themes/air/air-quality"}],"sourceName":"EEA Hungary","sourceType":"government","mobile":false}
{"date":{"utc":"2018-11-09T21:00:00.000Z","local":"2018-11-09T22:00:00+01:00"},"parameter":"co","value":2121,"unit":"µg/m³","averagingPeriod":{"unit":"hours","value":1},"location":"CZ0TOCB","city":"Moravskoslezský","country":"CZ","coordinates":{"latitude":49.8398475646973,"longitude":18.2899761199951},"attribution":[{"name":"EEA","url":"http://www.eea.europa.eu/themes/air/air-quality"}],"sourceName":"EEA Czech Republic","sourceType":"government","mobile":false}
{"date":{"utc":"2018-11-09T22:00:00.000Z","local":"2018-11-09T23:00:00+01:00"},"parameter":"pm25","value":30,"unit":"µg/m³","averagingPeriod":{"unit":"hours","value":1},"location":"HR0011A","city":"Osjecko-baranjska","country":"HR","coordinates":{"latitude":45.6980277772411,"longitude":18.8346388888889},"attribution":[{"name":"EEA","url":"http://www.eea.europa.eu/themes/air/air-quality"}],"sourceName":"EEA Croatia","sourceType":"government","mobile":false}
{"date":{"utc":"2018-11-09T23:00:00.000Z","local":"2018-11-10T01:00:00+02:00"},"parameter":"so2","value":2.577576,"unit":"µg/m³","averagingPeriod":{"unit":"hours","value":1},"location":"LV0019A","city":"Riga","country":"LV","coordinates":{"latitude":56.9506059995096,"longitude":24.115872},"attribution":[{"name":"EEA","url":"http://www.eea.europa.eu/themes/air/air-quality"}],"sourceName":"EEA Latvia","sourceType":"government","mobile":false}
{"date":{"utc":"2018-11-09T23:00:00.000Z","local":"2018-11-10T10:00:00+11:00"},"parameter":"so2","value":0,"unit":"ppm","averagingPeriod":{"value":1,"unit":"hours"},"location":"Randwick","city":"Sydney East","country":"AU","coordinates":{"latitude":-33.9333333,"longitude":151.2419444},"attribution":[{"name":"NSW - Office of Environment & Heritage","url":"http://www.environment.nsw.gov.au/"}],"sourceName":"Australia - New South Wales","sourceType":"government","mobile":false}
{"date":{"utc":"2018-11-10T00:00:00.000Z","local":"2018-11-10T08:00:00+08:00"},"parameter":"no2","value":31.6,"unit":"µg/m³","averagingPeriod":{"value":1,"unit":"hours"},"location":"Eastern","city":"Eastern","country":"HK","coordinates":{"longitude":114.21944444444445,"latitude":22.282777777777778},"attribution":[{"name":"Environmental Protection Department","url":"https://data.gov.hk/en-data/dataset/hk-epd-airteam-past24hr-pc-of-individual-air-quality-monitoring-stations"}],"sourceName":"Hong Kong","sourceType":"government","mobile":false}
{"date":{"utc":"2018-11-09T23:00:00.000Z","local":"2018-11-10T00:00:00+01:00"},"parameter":"pm25","value":102.039,"unit":"µg/m³","averagingPeriod":{"unit":"hours","value":1},"location":"MK0048A","city":"Karpos Municipality","country":"MK","coordinates":{"latitude":42.0059999994659,"longitude":21.387},"attribution":[{"name":"EEA","url":"http://www.eea.europa.eu/themes/air/air-quality"}],"sourceName":"EEA Macedonia","sourceType":"government","mobile":false}
{"date":{"utc":"2018-11-09T21:00:00.000Z","local":"2018-11-09T21:00:00+00:00"},"parameter":"o3","value":60,"unit":"µg/m³","averagingPeriod":{"unit":"hours","value":1},"location":"PT01052","city":"Porto","country":"PT","coordinates":{"latitude":41.187778,"longitude":-8.672222},"attribution":[{"name":"EEA","url":"http://www.eea.europa.eu/themes/air/air-quality"}],"sourceName":"EEA Portugal","sourceType":"government","mobile":false}
{"date":{"utc":"2018-11-10T00:00:00.000Z","local":"2018-11-10T01:00:00+01:00"},"parameter":"co","value":230,"unit":"µg/m³","averagingPeriod":{"unit":"hours","value":1},"location":"DK0031A","city":"Syddanmark","country":"DK","coordinates":{"latitude":55.3944486943704,"longitude":10.3937773318481},"attribution":[{"name":"EEA","url":"http://www.eea.europa.eu/themes/air/air-quality"}],"sourceName":"EEA Denmark","sourceType":"government","mobile":false}
{"date":{"utc":"2018-11-10T00:00:00.000Z","local":"2018-11-10T10:00:00+10:00"},"parameter":"no2","value":0,"unit":"ppm","averagingPeriod":{"value":1,"unit":"hours"},"location":"Deception Bay","city":"South East Queensland","country":"AU","coordinates":{"latitude":-27.4296,"longitude":153.158},"attribution":[{"name":"Department of Environment and Heritage Protection","url":"https://data.qld.gov.au/dataset/air-quality-monitoring-live-data-feed/resource/50410fbe-8766-45cd-a259-c4c1f3c89dd1"},{"name":"Department of Environment and Heritage Protection","url":"http://www.qld.gov.au/environment/pollution/monitoring/air-monitoring/seq/#deception"}],"sourceName":"Australia - Queensland","sourceType":"government","mobile":false}
{"date":{"utc":"2018-11-09T23:00:00.000Z","local":"2018-11-10T00:00:00+01:00"},"parameter":"o3","value":4,"unit":"µg/m³","averagingPeriod":{"unit":"hours","value":1},"location":"AD0942A","city":"Escaldes-Engordany","country":"AD","coordinates":{"latitude":42.5096939994651,"longitude":1.539138},"attribution":[{"name":"EEA","url":"http://www.eea.europa.eu/themes/air/air-quality"}],"sourceName":"EEA Andorra","sourceType":"government","mobile":false}
{"date":{"utc":"2018-11-09T23:00:00.000Z","local":"2018-11-10T00:00:00+01:00"},"parameter":"pm10","value":48.76817,"unit":"µg/m³","averagingPeriod":{"unit":"hours","value":1},"location":"RS0032A","city":"Grad Beograd","country":"RS","coordinates":{"latitude":44.82112,"longitude":20.459113},"attribution":[{"name":"EEA","url":"http://www.eea.europa.eu/themes/air/air-quality"}],"sourceName":"EEA Servia","sourceType":"government","mobile":false}
{"date":{"utc":"2018-11-09T22:00:00.000Z","local":"2018-11-09T23:00:00+01:00"},"parameter":"pm25","value":6.5,"unit":"µg/m³","averagingPeriod":{"unit":"hours","value":1},"location":"HR0013A","city":"Licko-senjska","country":"HR","coordinates":{"latitude":44.8993333327965,"longitude":15.6097777777778},"attribution":[{"name":"EEA","url":"http://www.eea.europa.eu/themes/air/air-quality"}],"sourceName":"EEA Croatia","sourceType":"government","mobile":false}
{"date":{"utc":"2018-11-09T21:00:00.000Z","local":"2018-11-09T22:00:00+01:00"},"parameter":"pm25","value":72,"unit":"µg/m³","averagingPeriod":{"unit":"hours","value":1},"location":"CZ0EMTP","city":"Pardubický","country":"CZ","coordinates":{"latitude":49.7589950561523,"longitude":16.6667213439941},"attribution":[{"name":"EEA","url":"http://www.eea.europa.eu/themes/air/air-quality"}],"sourceName":"EEA Czech Republic","sourceType":"government","mobile":false}
{"date":{"utc":"2018-11-10T00:00:00.000Z","local":"2018-11-10T01:00:00+01:00"},"parameter":"no2","value":48.33734,"unit":"µg/m³","averagingPeriod":{"unit":"hours","value":1},"location":"HU0030A","city":"Baranya","country":"HU","coordinates":{"latitude":46.0711097694636,"longitude":18.22528648},"attribution":[{"name":"EEA","url":"http://www.eea.europa.eu/themes/air/air-quality"}],"sourceName":"EEA Hungary","sourceType":"government","mobile":false}
{"date":{"utc":"2018-11-09T21:00:00.000Z","local":"2018-11-09T23:00:00+02:00"},"parameter":"o3","value":20.43,"unit":"µg/m³","averagingPeriod":{"unit":"hours","value":1},"location":"FI00301","city":"Northern Ostrobothnia","country":"FI","coordinates":{"latitude":65.0433799995895,"longitude":25.4979},"attribution":[{"name":"EEA","url":"http://www.eea.europa.eu/themes/air/air-quality"}],"sourceName":"EEA Finland","sourceType":"government","mobile":false}
{"date":{"utc":"2018-11-09T23:00:00.000Z","local":"2018-11-09T23:00:00+00:00"},"parameter":"no2","value":16.27815129,"unit":"µg/m³","averagingPeriod":{"unit":"hours","value":1},"location":"IE0028A","city":"Dublin City","country":"IE","coordinates":{"latitude":53.353889,"longitude":-6.278056},"attribution":[{"name":"EEA","url":"http://www.eea.europa.eu/themes/air/air-quality"}],"sourceName":"EEA Ireland","sourceType":"government","mobile":false}
{"date":{"utc":"2018-11-10T00:00:00.000Z","local":"2018-11-10T01:00:00+01:00"},"parameter":"co","value":0,"unit":"µg/m³","averagingPeriod":{"unit":"hours","value":1},"location":"MT00007","city":"Gharb","country":"MT","coordinates":{"latitude":36.0670700094886,"longitude":14.19715309},"attribution":[{"name":"EEA","url":"http://www.eea.europa.eu/themes/air/air-quality"}],"sourceName":"EEA Malta","sourceType":"government","mobile":false}
{"date":{"utc":"2018-11-09T23:00:00.000Z","local":"2018-11-10T00:00:00+01:00"},"parameter":"so2","value":1.5517,"unit":"µg/m³","averagingPeriod":{"unit":"hours","value":1},"location":"CH0005A","city":"Zürich","country":"CH","coordinates":{"latitude":47.4029160301617,"longitude":8.61339728709878},"attribution":[{"name":"EEA","url":"http://www.eea.europa.eu/themes/air/air-quality"}],"sourceName":"EEA Switzerland","sourceType":"government","mobile":false}
{"date":{"utc":"2018-11-09T23:00:00.000Z","local":"2018-11-10T10:00:00+11:00"},"parameter":"pm10","value":17.4,"unit":"µg/m³","averagingPeriod":{"value":24,"unit":"hours"},"location":"Randwick","city":"Sydney East","country":"AU","coordinates":{"latitude":-33.9333333,"longitude":151.2419444},"attribution":[{"name":"NSW - Office of Environment & Heritage","url":"http://www.environment.nsw.gov.au/"}],"sourceName":"Australia - New South Wales","sourceType":"government","mobile":false}
{"date":{"utc":"2018-11-09T23:00:00.000Z","local":"2018-11-10T00:00:00+01:00"},"parameter":"co","value":806.78,"unit":"µg/m³","averagingPeriod":{"unit":"hours","value":1},"location":"SK0266A","city":"Prešovský kraj","country":"SK","coordinates":{"latitude":48.9933319094685,"longitude":21.26749992},"attribution":[{"name":"EEA","url":"http://www.eea.europa.eu/themes/air/air-quality"}],"sourceName":"EEA Slovakia","sourceType":"government","mobile":false}
{"date":{"utc":"2018-11-09T23:00:00.000Z","local":"2018-11-10T00:00:00+01:00"},"parameter":"pm25","value":45.1213,"unit":"µg/m³","averagingPeriod":{"unit":"hours","value":1},"location":"MK0047A","city":"Centar Municipality","country":"MK","coordinates":{"latitude":41.991999999466,"longitude":21.423},"attribution":[{"name":"EEA","url":"http://www.eea.europa.eu/themes/air/air-quality"}],"sourceName":"EEA Macedonia","sourceType":"government","mobile":false}
{"date":{"utc":"2018-11-10T00:00:00.000Z","local":"2018-11-10T08:00:00+08:00"},"parameter":"o3","value":50.2,"unit":"µg/m³","averagingPeriod":{"value":1,"unit":"hours"},"location":"Eastern","city":"Eastern","country":"HK","coordinates":{"longitude":114.21944444444445,"latitude":22.282777777777778},"attribution":[{"name":"Environmental Protection Department","url":"https://data.gov.hk/en-data/dataset/hk-epd-airteam-past24hr-pc-of-individual-air-quality-monitoring-stations"}],"sourceName":"Hong Kong","sourceType":"government","mobile":false}
{"date":{"utc":"2018-11-10T00:00:00.000Z","local":"2018-11-10T01:00:00+01:00"},"parameter":"co","value":210,"unit":"µg/m³","averagingPeriod":{"unit":"hours","value":1},"location":"DK0051A","city":"Midtjylland","country":"DK","coordinates":{"latitude":56.1505584695037,"longitude":10.2008419},"attribution":[{"name":"EEA","url":"http://www.eea.europa.eu/themes/air/air-quality"}],"sourceName":"EEA Denmark","sourceType":"government","mobile":false}
{"date":{"utc":"2018-11-09T21:00:00.000Z","local":"2018-11-09T21:00:00+00:00"},"parameter":"o3","value":71,"unit":"µg/m³","averagingPeriod":{"unit":"hours","value":1},"location":"PT02021","city":"Viseu","country":"PT","coordinates":{"latitude":40.641111,"longitude":-8.100556},"attribution":[{"name":"EEA","url":"http://www.eea.europa.eu/themes/air/air-quality"}],"sourceName":"EEA Portugal","sourceType":"government","mobile":false}
{"date":{"utc":"2018-11-09T22:00:00.000Z","local":"2018-11-09T23:00:00+01:00"},"parameter":"pm10","value":55.32333,"unit":"µg/m³","averagingPeriod":{"unit":"hours","value":1},"location":"RS0036A","city":"Grad Beograd","country":"RS","coordinates":{"latitude":44.803179,"longitude":20.400152},"attribution":[{"name":"EEA","url":"http://www.eea.europa.eu/themes/air/air-quality"}],"sourceName":"EEA Servia","sourceType":"government","mobile":false}
{"date":{"utc":"2018-11-09T23:00:00.000Z","local":"2018-11-09T23:00:00+00:00"},"parameter":"so2","value":0.23372542,"unit":"µg/m³","averagingPeriod":{"unit":"hours","value":1},"location":"IE0028A","city":"Dublin City","country":"IE","coordinates":{"latitude":53.353889,"longitude":-6.278056},"attribution":[{"name":"EEA","url":"http://www.eea.europa.eu/themes/air/air-quality"}],"sourceName":"EEA Ireland","sourceType":"government","mobile":false}
{"date":{"utc":"2018-11-10T00:00:00.000Z","local":"2018-11-10T10:00:00+10:00"},"parameter":"o3","value":0.029,"unit":"ppm","averagingPeriod":{"value":1,"unit":"hours"},"location":"Deception Bay","city":"South East Queensland","country":"AU","coordinates":{"latitude":-27.4296,"longitude":153.158},"attribution":[{"name":"Department of Environment and Heritage Protection","url":"https://data.qld.gov.au/dataset/air-quality-monitoring-live-data-feed/resource/50410fbe-8766-45cd-a259-c4c1f3c89dd1"},{"name":"Department of Environment and Heritage Protection","url":"http://www.qld.gov.au/environment/pollution/monitoring/air-monitoring/seq/#deception"}],"sourceName":"Australia - Queensland","sourceType":"government","mobile":false}
{"date":{"utc":"2018-11-09T23:00:00.000Z","local":"2018-11-10T00:00:00+01:00"},"parameter":"o3","value":77,"unit":"µg/m³","averagingPeriod":{"unit":"hours","value":1},"location":"AD0944A","city":"Escaldes-Engordany","country":"AD","coordinates":{"latitude":42.516943999465,"longitude":1.56525},"attribution":[{"name":"EEA","url":"http://www.eea.europa.eu/themes/air/air-quality"}],"sourceName":"EEA Andorra","sourceType":"government","mobile":false}
{"date":{"utc":"2018-11-09T23:00:00.000Z","local":"2018-11-10T10:00:00+11:00"},"parameter":"pm25","value":4.3,"unit":"µg/m³","averagingPeriod":{"value":24,"unit":"hours"},"location":"Randwick","city":"Sydney East","country":"AU","coordinates":{"latitude":-33.9333333,"longitude":151.2419444},"attribution":[{"name":"NSW - Office of Environment & Heritage","url":"http://www.environment.nsw.gov.au/"}],"sourceName":"Australia - New South Wales","sourceType":"government","mobile":false}
{"date":{"utc":"2018-11-10T00:00:00.000Z","local":"2018-11-10T01:00:00+01:00"},"parameter":"pm25","value":5.7,"unit":"µg/m³","averagingPeriod":{"unit":"hours","value":1},"location":"MT00004","city":"Zejtun (Citta' Beland)","country":"MT","coordinates":{"latitude":35.8522911094898,"longitude":14.53898621},"attribution":[{"name":"EEA","url":"http://www.eea.europa.eu/themes/air/air-quality"}],"sourceName":"EEA Malta","sourceType":"government","mobile":false}
{"date":{"utc":"2018-11-09T21:00:00.000Z","local":"2018-11-09T22:00:00+01:00"},"parameter":"pm25","value":51,"unit":"µg/m³","averagingPeriod":{"unit":"hours","value":1},"location":"CZ0BBNI","city":"Jihomoravský","country":"CZ","coordinates":{"latitude":49.2132110595703,"longitude":16.6780242919922},"attribution":[{"name":"EEA","url":"http://www.eea.europa.eu/themes/air/air-quality"}],"sourceName":"EEA Czech Republic","sourceType":"government","mobile":false}
{"date":{"utc":"2018-11-09T22:00:00.000Z","local":"2018-11-09T23:00:00+01:00"},"parameter":"pm25","value":38.5,"unit":"µg/m³","averagingPeriod":{"unit":"hours","value":1},"location":"HR0010A","city":"Brodsko-posavska","country":"HR","coordinates":{"latitude":45.1594722216854,"longitude":17.9951},"attribution":[{"name":"EEA","url":"http://www.eea.europa.eu/themes/air/air-quality"}],"sourceName":"EEA Croatia","sourceType":"government","mobile":false}
{"date":{"utc":"2018-11-09T23:00:00.000Z","local":"2018-11-10T00:00:00+01:00"},"parameter":"so2","value":0.8428,"unit":"µg/m³","averagingPeriod":{"unit":"hours","value":1},"location":"CH0033A","city":"Ticino","country":"CH","coordinates":{"latitude":46.1603950441395,"longitude":8.93394312993115},"attribution":[{"name":"EEA","url":"http://www.eea.europa.eu/themes/air/air-quality"}],"sourceName":"EEA Switzerland","sourceType":"government","mobile":false}
{"date":{"utc":"2018-11-09T23:00:00.000Z","local":"2018-11-10T00:00:00+01:00"},"parameter":"co","value":1151.53,"unit":"µg/m³","averagingPeriod":{"unit":"hours","value":1},"location":"SK0039A","city":"Žilinský kraj","country":"SK","coordinates":{"latitude":49.0669441194687,"longitude":18.92194748},"attribution":[{"name":"EEA","url":"http://www.eea.europa.eu/themes/air/air-quality"}],"sourceName":"EEA Slovakia","sourceType":"government","mobile":false}
{"date":{"utc":"2018-11-09T23:00:00.000Z","local":"2018-11-10T01:00:00+02:00"},"parameter":"o3","value":27.60404,"unit":"µg/m³","averagingPeriod":{"unit":"hours","value":1},"location":"FI00781","city":"Uusimaa","country":"FI","coordinates":{"latitude":60.2239299995377,"longitude":25.10244},"attribution":[{"name":"EEA","url":"http://www.eea.europa.eu/themes/air/air-quality"}],"sourceName":"EEA Finland","sourceType":"government","mobile":false}
{"date":{"utc":"2018-11-09T22:00:00.000Z","local":"2018-11-09T23:00:00+01:00"},"parameter":"so2","value":0.58519468,"unit":"µg/m³","averagingPeriod":{"unit":"hours","value":1},"location":"MK0040A","city":"Veles Municipality","country":"MK","coordinates":{"latitude":41.7058299994665,"longitude":21.76529},"attribution":[{"name":"EEA","url":"http://www.eea.europa.eu/themes/air/air-quality"}],"sourceName":"EEA Macedonia","sourceType":"government","mobile":false}
{"date":{"utc":"2018-11-10T00:00:00.000Z","local":"2018-11-10T01:00:00+01:00"},"parameter":"no2","value":38.17785,"unit":"µg/m³","averagingPeriod":{"unit":"hours","value":1},"location":"HU0034A","city":"Veszprém","country":"HU","coordinates":{"latitude":47.0911102294647,"longitude":17.90112114},"attribution":[{"name":"EEA","url":"http://www.eea.europa.eu/themes/air/air-quality"}],"sourceName":"EEA Hungary","sourceType":"government","mobile":false}
{"date":{"utc":"2018-11-09T22:00:00.000Z","local":"2018-11-09T23:00:00+01:00"},"parameter":"pm10","value":55.16833,"unit":"µg/m³","averagingPeriod":{"unit":"hours","value":1},"location":"RS0032A","city":"Grad Beograd","country":"RS","coordinates":{"latitude":44.82112,"longitude":20.459113},"attribution":[{"name":"EEA","url":"http://www.eea.europa.eu/themes/air/air-quality"}],"sourceName":"EEA Servia","sourceType":"government","mobile":false}
{"date":{"utc":"2018-11-10T00:00:00.000Z","local":"2018-11-10T08:00:00+08:00"},"parameter":"so2","value":1.1,"unit":"µg/m³","averagingPeriod":{"value":1,"unit":"hours"},"location":"Eastern","city":"Eastern","country":"HK","coordinates":{"longitude":114.21944444444445,"latitude":22.282777777777778},"attribution":[{"name":"Environmental Protection Department","url":"https://data.gov.hk/en-data/dataset/hk-epd-airteam-past24hr-pc-of-individual-air-quality-monitoring-stations"}],"sourceName":"Hong Kong","sourceType":"government","mobile":false}
{"date":{"utc":"2018-11-10T00:00:00.000Z","local":"2018-11-10T01:00:00+01:00"},"parameter":"co","value":190,"unit":"µg/m³","averagingPeriod":{"unit":"hours","value":1},"location":"DK0012R","city":"Sjælland","country":"DK","coordinates":{"latitude":55.6941046893584,"longitude":12.0886287783964},"attribution":[{"name":"EEA","url":"http://www.eea.europa.eu/themes/air/air-quality"}],"sourceName":"EEA Denmark","sourceType":"government","mobile":false}
{"date":{"utc":"2018-11-09T22:00:00.000Z","local":"2018-11-09T22:00:00+00:00"},"parameter":"o3","value":57,"unit":"µg/m³","averagingPeriod":{"unit":"hours","value":1},"location":"PT03087","city":"Lisboa","country":"PT","coordinates":{"latitude":38.705,"longitude":-9.210278},"attribution":[{"name":"EEA","url":"http://www.eea.europa.eu/themes/air/air-quality"}],"sourceName":"EEA Portugal","sourceType":"government","mobile":false}
{"date":{"utc":"2018-11-09T23:00:00.000Z","local":"2018-11-10T10:00:00+11:00"},"parameter":"o3","value":0.023,"unit":"ppm","averagingPeriod":{"value":1,"unit":"hours"},"location":"Rozelle","city":"Sydney East","country":"AU","coordinates":{"latitude":-33.8658333,"longitude":151.1625},"attribution":[{"name":"NSW - Office of Environment & Heritage","url":"http://www.environment.nsw.gov.au/"}],"sourceName":"Australia - New South Wales","sourceType":"government","mobile":false}
{"date":{"utc":"2018-11-09T23:00:00.000Z","local":"2018-11-09T23:00:00+00:00"},"parameter":"co","value":0.116,"unit":"µg/m³","averagingPeriod":{"unit":"hours","value":1},"location":"IE0098A","city":"Dublin City","country":"IE","coordinates":{"latitude":53.341667,"longitude":-6.288889},"attribution":[{"name":"EEA","url":"http://www.eea.europa.eu/themes/air/air-quality"}],"sourceName":"EEA Ireland","sourceType":"government","mobile":false}
{"date":{"utc":"2018-11-09T22:00:00.000Z","local":"2018-11-10T00:00:00+02:00"},"parameter":"o3","value":19.28,"unit":"µg/m³","averagingPeriod":{"unit":"hours","value":1},"location":"FI00301","city":"Northern Ostrobothnia","country":"FI","coordinates":{"latitude":65.0433799995895,"longitude":25.4979},"attribution":[{"name":"EEA","url":"http://www.eea.europa.eu/themes/air/air-quality"}],"sourceName":"EEA Finland","sourceType":"government","mobile":false}
{"date":{"utc":"2018-11-10T00:00:00.000Z","local":"2018-11-10T10:00:00+10:00"},"parameter":"no2","value":0.001,"unit":"ppm","averagingPeriod":{"value":1,"unit":"hours"},"location":"Wynnum","city":"South East Queensland","country":"AU","coordinates":{"latitude":-27.4296,"longitude":153.158},"attribution":[{"name":"Department of Environment and Heritage Protection","url":"https://data.qld.gov.au/dataset/air-quality-monitoring-live-data-feed/resource/50410fbe-8766-45cd-a259-c4c1f3c89dd1"},{"name":"Department of Environment and Heritage Protection","url":"http://www.qld.gov.au/environment/pollution/monitoring/air-monitoring/seq/#wynnum"}],"sourceName":"Australia - Queensland","sourceType":"government","mobile":false}
{"date":{"utc":"2018-11-10T00:00:00.000Z","local":"2018-11-10T01:00:00+01:00"},"parameter":"so2","value":1.7,"unit":"µg/m³","averagingPeriod":{"unit":"hours","value":1},"location":"MT00004","city":"Zejtun (Citta' Beland)","country":"MT","coordinates":{"latitude":35.8522911094898,"longitude":14.53898621},"attribution":[{"name":"EEA","url":"http://www.eea.europa.eu/themes/air/air-quality"}],"sourceName":"EEA Malta","sourceType":"government","mobile":false}
{"date":{"utc":"2018-11-09T23:00:00.000Z","local":"2018-11-10T00:00:00+01:00"},"parameter":"so2","value":0.9041,"unit":"µg/m³","averagingPeriod":{"unit":"hours","value":1},"location":"CH0011A","city":"Ticino","country":"CH","coordinates":{"latitude":46.0111113455841,"longitude":8.95717356317848},"attribution":[{"name":"EEA","url":"http://www.eea.europa.eu/themes/air/air-quality"}],"sourceName":"EEA Switzerland","sourceType":"government","mobile":false}
{"date":{"utc":"2018-11-09T23:00:00.000Z","local":"2018-11-10T00:00:00+01:00"},"parameter":"co","value":955.724,"unit":"µg/m³","averagingPeriod":{"unit":"hours","value":1},"location":"SK0020A","city":"Žilinský kraj","country":"SK","coordinates":{"latitude":49.2119445794691,"longitude":18.77111435},"attribution":[{"name":"EEA","url":"http://www.eea.europa.eu/themes/air/air-quality"}],"sourceName":"EEA Slovakia","sourceType":"government","mobile":false}
{"date":{"utc":"2018-11-09T22:00:00.000Z","local":"2018-11-09T23:00:00+01:00"},"parameter":"pm25","value":12.9,"unit":"µg/m³","averagingPeriod":{"unit":"hours","value":1},"location":"HR0015A","city":"Istarska","country":"HR","coordinates":{"latitude":45.291202777241,"longitude":13.7497777777778},"attribution":[{"name":"EEA","url":"http://www.eea.europa.eu/themes/air/air-quality"}],"sourceName":"EEA Croatia","sourceType":"government","mobile":false}
{"date":{"utc":"2018-11-10T00:00:00.000Z","local":"2018-11-10T01:00:00+01:00"},"parameter":"no2","value":20.57615,"unit":"µg/m³","averagingPeriod":{"unit":"hours","value":1},"location":"HU0036A","city":"Budapest","country":"HU","coordinates":{"latitude":47.5619430494654,"longitude":18.96000862},"attribution":[{"name":"EEA","url":"http://www.eea.europa.eu/themes/air/air-quality"}],"sourceName":"EEA Hungary","sourceType":"government","mobile":false}
{"date":{"utc":"2018-11-09T21:00:00.000Z","local":"2018-11-09T22:00:00+01:00"},"parameter":"pm25","value":40,"unit":"µg/m³","averagingPeriod":{"unit":"hours","value":1},"location":"CZ0UDCM","city":"Ústecký","country":"CZ","coordinates":{"latitude":50.7741508483887,"longitude":14.2187938690186},"attribution":[{"name":"EEA","url":"http://www.eea.europa.eu/themes/air/air-quality"}],"sourceName":"EEA Czech Republic","sourceType":"government","mobile":false}
{"date":{"utc":"2018-11-09T22:00:00.000Z","local":"2018-11-09T23:00:00+01:00"},"parameter":"so2","value":0.23939787,"unit":"µg/m³","averagingPeriod":{"unit":"hours","value":1},"location":"MK0035A","city":"Kicevo Municipality","country":"MK","coordinates":{"latitude":41.5144499994669,"longitude":20.95862},"attribution":[{"name":"EEA","url":"http://www.eea.europa.eu/themes/air/air-quality"}],"sourceName":"EEA Macedonia","sourceType":"government","mobile":false}
{"date":{"utc":"2018-11-09T23:00:00.000Z","local":"2018-11-09T23:00:00+00:00"},"parameter":"pm10","value":14.2973,"unit":"µg/m³","averagingPeriod":{"unit":"hours","value":1},"location":"IE0028A","city":"Dublin City","country":"IE","coordinates":{"latitude":53.353889,"longitude":-6.278056},"attribution":[{"name":"EEA","url":"http://www.eea.europa.eu/themes/air/air-quality"}],"sourceName":"EEA Ireland","sourceType":"government","mobile":false}
{"date":{"utc":"2018-11-09T23:00:00.000Z","local":"2018-11-10T10:00:00+11:00"},"parameter":"no2","value":0.002,"unit":"ppm","averagingPeriod":{"value":1,"unit":"hours"},"location":"Rozelle","city":"Sydney East","country":"AU","coordinates":{"latitude":-33.8658333,"longitude":151.1625},"attribution":[{"name":"NSW - Office of Environment & Heritage","url":"http://www.environment.nsw.gov.au/"}],"sourceName":"Australia - New South Wales","sourceType":"government","mobile":false}
{"date":{"utc":"2018-11-10T00:00:00.000Z","local":"2018-11-10T08:00:00+08:00"},"parameter":"pm10","value":33.8,"unit":"µg/m³","averagingPeriod":{"value":1,"unit":"hours"},"location":"Eastern","city":"Eastern","country":"HK","coordinates":{"longitude":114.21944444444445,"latitude":22.282777777777778},"attribution":[{"name":"Environmental Protection Department","url":"https://data.gov.hk/en-data/dataset/hk-epd-airteam-past24hr-pc-of-individual-air-quality-monitoring-stations"}],"sourceName":"Hong Kong","sourceType":"government","mobile":false}
{"date":{"utc":"2018-11-10T00:00:00.000Z","local":"2018-11-10T01:00:00+01:00"},"parameter":"so2","value":0.67,"unit":"µg/m³","averagingPeriod":{"unit":"hours","value":1},"location":"DK0034A","city":"Hovedstaden","country":"DK","coordinates":{"latitude":55.6743033303032,"longitude":12.571113917497},"attribution":[{"name":"EEA","url":"http://www.eea.europa.eu/themes/air/air-quality"}],"sourceName":"EEA Denmark","sourceType":"government","mobile":false}
{"date":{"utc":"2018-11-09T23:00:00.000Z","local":"2018-11-10T01:00:00+02:00"},"parameter":"no2","value":3.142212,"unit":"µg/m³","averagingPeriod":{"unit":"hours","value":1},"location":"LV0007A","city":"Ventspils","country":"LV","coordinates":{"latitude":57.4046329995131,"longitude":21.591989},"attribution":[{"name":"EEA","url":"http://www.eea.europa.eu/themes/air/air-quality"}],"sourceName":"EEA Latvia","sourceType":"government","mobile":false}
{"date":{"utc":"2018-11-09T23:00:00.000Z","local":"2018-11-10T00:00:00+01:00"},"parameter":"o3","value":32.97403,"unit":"µg/m³","averagingPeriod":{"unit":"hours","value":1},"location":"RS0031A","city":"Južnobački upravni okrug","country":"RS","coordinates":{"latitude":45.238642,"longitude":19.835704},"attribution":[{"name":"EEA","url":"http://www.eea.europa.eu/themes/air/air-quality"}],"sourceName":"EEA Servia","sourceType":"government","mobile":false}
{"date":{"utc":"2018-11-09T21:00:00.000Z","local":"2018-11-09T21:00:00+00:00"},"parameter":"o3","value":54.6,"unit":"µg/m³","averagingPeriod":{"unit":"hours","value":1},"location":"PT03089","city":"Lisboa","country":"PT","coordinates":{"latitude":38.785,"longitude":-9.347222},"attribution":[{"name":"EEA","url":"http://www.eea.europa.eu/themes/air/air-quality"}],"sourceName":"EEA Portugal","sourceType":"government","mobile":false}
{"date":{"utc":"2018-11-10T00:00:00.000Z","local":"2018-11-10T01:00:00+01:00"},"parameter":"so2","value":4.1,"unit":"µg/m³","averagingPeriod":{"unit":"hours","value":1},"location":"MT00005","city":"Msida","country":"MT","coordinates":{"latitude":35.8958358794896,"longitude":14.48998642},"attribution":[{"name":"EEA","url":"http://www.eea.europa.eu/themes/air/air-quality"}],"sourceName":"EEA Malta","sourceType":"government","mobile":false}
{"date":{"utc":"2018-11-09T23:00:00.000Z","local":"2018-11-10T01:00:00+02:00"},"parameter":"o3","value":20.86,"unit":"µg/m³","averagingPeriod":{"unit":"hours","value":1},"location":"FI00301","city":"Northern Ostrobothnia","country":"FI","coordinates":{"latitude":65.0433799995895,"longitude":25.4979},"attribution":[{"name":"EEA","url":"http://www.eea.europa.eu/themes/air/air-quality"}],"sourceName":"EEA Finland","sourceType":"government","mobile":false}
{"date":{"utc":"2018-11-10T00:00:00.000Z","local":"2018-11-10T10:00:00+10:00"},"parameter":"so2","value":0.001,"unit":"ppm","averagingPeriod":{"value":1,"unit":"hours"},"location":"Wynnum","city":"South East Queensland","country":"AU","coordinates":{"latitude":-27.4296,"longitude":153.158},"attribution":[{"name":"Department of Environment and Heritage Protection","url":"https://data.qld.gov.au/dataset/air-quality-monitoring-live-data-feed/resource/50410fbe-8766-45cd-a259-c4c1f3c89dd1"},{"name":"Department of Environment and Heritage Protection","url":"http://www.qld.gov.au/environment/pollution/monitoring/air-monitoring/seq/#wynnum"}],"sourceName":"Australia - Queensland","sourceType":"government","mobile":false}
{"date":{"utc":"2018-11-09T22:00:00.000Z","local":"2018-11-09T23:00:00+01:00"},"parameter":"so2","value":1.67579468,"unit":"µg/m³","averagingPeriod":{"unit":"hours","value":1},"location":"MK0044A","city":"Kavadarci Municipality","country":"MK","coordinates":{"latitude":41.4405599994671,"longitude":22.00723},"attribution":[{"name":"EEA","url":"http://www.eea.europa.eu/themes/air/air-quality"}],"sourceName":"EEA Macedonia","sourceType":"government","mobile":false}
{"date":{"utc":"2018-11-09T21:00:00.000Z","local":"2018-11-09T22:00:00+01:00"},"parameter":"pm25","value":86,"unit":"µg/m³","averagingPeriod":{"unit":"hours","value":1},"location":"CZ0TOZR","city":"Moravskoslezský","country":"CZ","coordinates":{"latitude":49.7960395812988,"longitude":18.2471809387207},"attribution":[{"name":"EEA","url":"http://www.eea.europa.eu/themes/air/air-quality"}],"sourceName":"EEA Czech Republic","sourceType":"government","mobile":false}
{"date":{"utc":"2018-11-10T00:00:00.000Z","local":"2018-11-10T01:00:00+01:00"},"parameter":"no2","value":45.8361925,"unit":"µg/m³","averagingPeriod":{"unit":"hours","value":1},"location":"HU0031A","city":"Komárom-Esztergom","country":"HU","coordinates":{"latitude":47.5572204594654,"longitude":18.42083549},"attribution":[{"name":"EEA","url":"http://www.eea.europa.eu/themes/air/air-quality"}],"sourceName":"EEA Hungary","sourceType":"government","mobile":false}
{"date":{"utc":"2018-11-09T23:00:00.000Z","local":"2018-11-10T00:00:00+01:00"},"parameter":"co","value":1298.16,"unit":"µg/m³","averagingPeriod":{"unit":"hours","value":1},"location":"SK0265A","city":"Košický kraj","country":"SK","coordinates":{"latitude":48.9155578594683,"longitude":20.42388916},"attribution":[{"name":"EEA","url":"http://www.eea.europa.eu/themes/air/air-quality"}],"sourceName":"EEA Slovakia","sourceType":"government","mobile":false}
{"date":{"utc":"2018-11-09T23:00:00.000Z","local":"2018-11-10T00:00:00+01:00"},"parameter":"so2","value":1.0574,"unit":"µg/m³","averagingPeriod":{"unit":"hours","value":1},"location":"CH0010A","city":"Zürich","country":"CH","coordinates":{"latitude":47.3776165600282,"longitude":8.53041092115182},"attribution":[{"name":"EEA","url":"http://www.eea.europa.eu/themes/air/air-quality"}],"sourceName":"EEA Switzerland","sourceType":"government","mobile":false}
{"date":{"utc":"2018-11-09T23:00:00.000Z","local":"2018-11-10T00:00:00+01:00"},"parameter":"o3","value":33.96488,"unit":"µg/m³","averagingPeriod":{"unit":"hours","value":1},"location":"RS0032A","city":"Grad Beograd","country":"RS","coordinates":{"latitude":44.82112,"longitude":20.459113},"attribution":[{"name":"EEA","url":"http://www.eea.europa.eu/themes/air/air-quality"}],"sourceName":"EEA Servia","sourceType":"government","mobile":false}
{"date":{"utc":"2018-11-09T23:00:00.000Z","local":"2018-11-10T01:00:00+02:00"},"parameter":"no2","value":10.200195,"unit":"µg/m³","averagingPeriod":{"unit":"hours","value":1},"location":"LV0019A","city":"Riga","country":"LV","coordinates":{"latitude":56.9506059995096,"longitude":24.115872},"attribution":[{"name":"EEA","url":"http://www.eea.europa.eu/themes/air/air-quality"}],"sourceName":"EEA Latvia","sourceType":"government","mobile":false}
{"date":{"utc":"2018-11-10T00:00:00.000Z","local":"2018-11-10T08:00:00+08:00"},"parameter":"pm25","value":23.5,"unit":"µg/m³","averagingPeriod":{"value":1,"unit":"hours"},"location":"Eastern","city":"Eastern","country":"HK","coordinates":{"longitude":114.21944444444445,"latitude":22.282777777777778},"attribution":[{"name":"Environmental Protection Department","url":"https://data.gov.hk/en-data/dataset/hk-epd-airteam-past24hr-pc-of-individual-air-quality-monitoring-stations"}],"sourceName":"Hong Kong","sourceType":"government","mobile":false}
{"date":{"utc":"2018-11-09T23:00:00.000Z","local":"2018-11-10T10:00:00+11:00"},"parameter":"co","value":0.1,"unit":"ppm","averagingPeriod":{"value":8,"unit":"hours"},"location":"Rozelle","city":"Sydney East","country":"AU","coordinates":{"latitude":-33.8658333,"longitude":151.1625},"attribution":[{"name":"NSW - Office of Environment & Heritage","url":"http://www.environment.nsw.gov.au/"}],"sourceName":"Australia - New South Wales","sourceType":"government","mobile":false}
{"date":{"utc":"2018-11-09T23:00:00.000Z","local":"2018-11-09T23:00:00+00:00"},"parameter":"pm25","value":8.3227927,"unit":"µg/m³","averagingPeriod":{"unit":"hours","value":1},"location":"IE0028A","city":"Dublin City","country":"IE","coordinates":{"latitude":53.353889,"longitude":-6.278056},"attribution":[{"name":"EEA","url":"http://www.eea.europa.eu/themes/air/air-quality"}],"sourceName":"EEA Ireland","sourceType":"government","mobile":false}
{"date":{"utc":"2018-11-10T00:00:00.000Z","local":"2018-11-10T10:00:00+10:00"},"parameter":"pm10","value":14.7,"unit":"µg/m³","averagingPeriod":{"value":1,"unit":"hours"},"location":"Wynnum","city":"South East Queensland","country":"AU","coordinates":{"latitude":-27.4296,"longitude":153.158},"attribution":[{"name":"Department of Environment and Heritage Protection","url":"https://data.qld.gov.au/dataset/air-quality-monitoring-live-data-feed/resource/50410fbe-8766-45cd-a259-c4c1f3c89dd1"},{"name":"Department of Environment and Heritage Protection","url":"http://www.qld.gov.au/environment/pollution/monitoring/air-monitoring/seq/#wynnum"}],"sourceName":"Australia - Queensland","sourceType":"government","mobile":false}
{"date":{"utc":"2018-11-10T00:00:00.000Z","local":"2018-11-10T01:00:00+01:00"},"parameter":"so2","value":0.4,"unit":"µg/m³","averagingPeriod":{"unit":"hours","value":1},"location":"MT00007","city":"Gharb","country":"MT","coordinates":{"latitude":36.0670700094886,"longitude":14.19715309},"attribution":[{"name":"EEA","url":"http://www.eea.europa.eu/themes/air/air-quality"}],"sourceName":"EEA Malta","sourceType":"government","mobile":false}
{"date":{"utc":"2018-11-10T00:00:00.000Z","local":"2018-11-10T01:00:00+01:00"},"parameter":"no2","value":10.17,"unit":"µg/m³","averagingPeriod":{"unit":"hours","value":1},"location":"DK0046A","city":"Syddanmark","country":"DK","coordinates":{"latitude":55.3963873093883,"longitude":10.3891959238991},"attribution":[{"name":"EEA","url":"http://www.eea.europa.eu/themes/air/air-quality"}],"sourceName":"EEA Denmark","sourceType":"government","mobile":false}
{"date":{"utc":"2018-11-09T21:00:00.000Z","local":"2018-11-09T21:00:00+00:00"},"parameter":"o3","value":62.2,"unit":"µg/m³","averagingPeriod":{"unit":"hours","value":1},"location":"PT03091","city":"Lisboa","country":"PT","coordinates":{"latitude":38.6975,"longitude":-9.323333},"attribution":[{"name":"EEA","url":"http://www.eea.europa.eu/themes/air/air-quality"}],"sourceName":"EEA Portugal","sourceType":"government","mobile":false}
{"date":{"utc":"2018-11-09T23:00:00.000Z","local":"2018-11-10T01:00:00+02:00"},"parameter":"o3","value":10,"unit":"µg/m³","averagingPeriod":{"unit":"hours","value":1},"location":"FI00586","city":"Ostrobothnia","country":"FI","coordinates":{"latitude":63.1012099995673,"longitude":21.60407},"attribution":[{"name":"EEA","url":"http://www.eea.europa.eu/themes/air/air-quality"}],"sourceName":"EEA Finland","sourceType":"government","mobile":false}
{"date":{"utc":"2018-11-09T23:00:00.000Z","local":"2018-11-10T00:00:00+01:00"},"parameter":"so2","value":1.56939202,"unit":"µg/m³","averagingPeriod":{"unit":"hours","value":1},"location":"MK0044A","city":"Kavadarci Municipality","country":"MK","coordinates":{"latitude":41.4405599994671,"longitude":22.00723},"attribution":[{"name":"EEA","url":"http://www.eea.europa.eu/themes/air/air-quality"}],"sourceName":"EEA Macedonia","sourceType":"government","mobile":false}
{"date":{"utc":"2018-11-09T23:00:00.000Z","local":"2018-11-10T10:00:00+11:00"},"parameter":"so2","value":0.166,"unit":"ppm","averagingPeriod":{"value":1,"unit":"hours"},"location":"Rozelle","city":"Sydney East","country":"AU","coordinates":{"latitude":-33.8658333,"longitude":151.1625},"attribution":[{"name":"NSW - Office of Environment & Heritage","url":"http://www.environment.nsw.gov.au/"}],"sourceName":"Australia - New South Wales","sourceType":"government","mobile":false}
{"date":{"utc":"2018-11-10T00:00:00.000Z","local":"2018-11-10T08:00:00+08:00"},"parameter":"no2","value":20.2,"unit":"µg/m³","averagingPeriod":{"value":1,"unit":"hours"},"location":"Kwun Tong","city":"Kowloon","country":"HK","coordinates":{"longitude":114.22472222222223,"latitude":22.313333333333333},"attribution":[{"name":"Environmental Protection Department","url":"https://data.gov.hk/en-data/dataset/hk-epd-airteam-past24hr-pc-of-individual-air-quality-monitoring-stations"}],"sourceName":"Hong Kong","sourceType":"government","mobile":false}
{"date":{"utc":"2018-11-09T23:00:00.000Z","local":"2018-11-10T00:00:00+01:00"},"parameter":"o3","value":16.62168,"unit":"µg/m³","averagingPeriod":{"unit":"hours","value":1},"location":"RS0034A","city":"Severnobanatski upravni okrug","country":"RS","coordinates":{"latitude":45.821483,"longitude":20.454008},"attribution":[{"name":"EEA","url":"http://www.eea.europa.eu/themes/air/air-quality"}],"sourceName":"EEA Servia","sourceType":"government","mobile":false}
{"date":{"utc":"2018-11-09T21:00:00.000Z","local":"2018-11-09T22:00:00+01:00"},"parameter":"pm25","value":21,"unit":"µg/m³","averagingPeriod":{"unit":"hours","value":1},"location":"CZ0UULK","city":"Ústecký","country":"CZ","coordinates":{"latitude":50.6835250854492,"longitude":14.0411949157715},"attribution":[{"name":"EEA","url":"http://www.eea.europa.eu/themes/air/air-quality"}],"sourceName":"EEA Czech Republic","sourceType":"government","mobile":false}
{"date":{"utc":"2018-11-10T00:00:00.000Z","local":"2018-11-10T01:00:00+01:00"},"parameter":"no2","value":25.0959275,"unit":"µg/m³","averagingPeriod":{"unit":"hours","value":1},"location":"HU0025A","city":"Gyor-Moson-Sopron","country":"HU","coordinates":{"latitude":47.676114611619,"longitude":17.6497393762667},"attribution":[{"name":"EEA","url":"http://www.eea.europa.eu/themes/air/air-quality"}],"sourceName":"EEA Hungary","sourceType":"government","mobile":false}
{"date":{"utc":"2018-11-09T23:00:00.000Z","local":"2018-11-10T00:00:00+01:00"},"parameter":"so2","value":1.5635,"unit":"µg/m³","averagingPeriod":{"unit":"hours","value":1},"location":"CH0008A","city":"Basel-Landschaft","country":"CH","coordinates":{"latitude":47.5410842894654,"longitude":7.5832696},"attribution":[{"name":"EEA","url":"http://www.eea.europa.eu/themes/air/air-quality"}],"sourceName":"EEA Switzerland","sourceType":"government","mobile":false}
{"date":{"utc":"2018-11-09T23:00:00.000Z","local":"2018-11-10T00:00:00+01:00"},"parameter":"co","value":1025.44,"unit":"µg/m³","averagingPeriod":{"unit":"hours","value":1},"location":"SK0002A","city":"Bratislavský kraj","country":"SK","coordinates":{"latitude":48.1584279994666,"longitude":17.128678},"attribution":[{"name":"EEA","url":"http://www.eea.europa.eu/themes/air/air-quality"}],"sourceName":"EEA Slovakia","sourceType":"government","mobile":false}
{"date":{"utc":"2018-11-10T00:00:00.000Z","local":"2018-11-10T01:00:00+01:00"},"parameter":"co","value":0.3195,"unit":"µg/m³","averagingPeriod":{"value":1,"unit":"hours"},"location":"Amsterdam-Einsteinweg","city":"Amsterdam","country":"NL","coordinates":{"latitude":52.3813,"longitude":4.84523},"attribution":[{"name":"RIVM","url":"http://www.lml.rivm.nl/"},{"name":"GGD A'dam"}],"sourceName":"Netherlands","sourceType":"government","mobile":false}
{"date":{"utc":"2018-11-09T23:00:00.000Z","local":"2018-11-10T01:00:00+02:00"},"parameter":"o3","value":18.8183023,"unit":"µg/m³","averagingPeriod":{"unit":"hours","value":1},"location":"FI00356","city":"Lapland","country":"FI","coordinates":{"latitude":67.9673440876493,"longitude":24.1122195302226},"attribution":[{"name":"EEA","url":"http://www.eea.europa.eu/themes/air/air-quality"}],"sourceName":"EEA Finland","sourceType":"government","mobile":false}
{"date":{"utc":"2018-11-09T21:00:00.000Z","local":"2018-11-09T21:00:00+00:00"},"parameter":"o3","value":4.3,"unit":"µg/m³","averagingPeriod":{"unit":"hours","value":1},"location":"PT03101","city":"Lisboa","country":"PT","coordinates":{"latitude":38.896111,"longitude":-9.040278},"attribution":[{"name":"EEA","url":"http://www.eea.europa.eu/themes/air/air-quality"}],"sourceName":"EEA Portugal","sourceType":"government","mobile":false}
{"date":{"utc":"2018-11-10T00:00:00.000Z","local":"2018-11-10T01:00:00+01:00"},"parameter":"no2","value":21.57,"unit":"µg/m³","averagingPeriod":{"unit":"hours","value":1},"location":"DK0051A","city":"Midtjylland","country":"DK","coordinates":{"latitude":56.1505584695037,"longitude":10.2008419},"attribution":[{"name":"EEA","url":"http://www.eea.europa.eu/themes/air/air-quality"}],"sourceName":"EEA Denmark","sourceType":"government","mobile":false}
{"date":{"utc":"2018-11-10T00:00:00.000Z","local":"2018-11-10T01:00:00+01:00"},"parameter":"no2","value":8.7,"unit":"µg/m³","averagingPeriod":{"unit":"hours","value":1},"location":"MT00007","city":"Gharb","country":"MT","coordinates":{"latitude":36.0670700094886,"longitude":14.19715309},"attribution":[{"name":"EEA","url":"http://www.eea.europa.eu/themes/air/air-quality"}],"sourceName":"EEA Malta","sourceType":"government","mobile":false}
{"date":{"utc":"2018-11-10T00:00:00.000Z","local":"2018-11-10T10:00:00+10:00"},"parameter":"pm25","value":3,"unit":"µg/m³","averagingPeriod":{"value":1,"unit":"hours"},"location":"Wynnum","city":"South East Queensland","country":"AU","coordinates":{"latitude":-27.4296,"longitude":153.158},"attribution":[{"name":"Department of Environment and Heritage Protection","url":"https://data.qld.gov.au/dataset/air-quality-monitoring-live-data-feed/resource/50410fbe-8766-45cd-a259-c4c1f3c89dd1"},{"name":"Department of Environment and Heritage Protection","url":"http://www.qld.gov.au/environment/pollution/monitoring/air-monitoring/seq/#wynnum"}],"sourceName":"Australia - Queensland","sourceType":"government","mobile":false}
{"date":{"utc":"2018-11-09T23:00:00.000Z","local":"2018-11-10T00:00:00+01:00"},"parameter":"pm10","value":36.6406,"unit":"µg/m³","averagingPeriod":{"unit":"hours","value":1},"location":"CH0013A","city":"Zürich","country":"CH","coordinates":{"latitude":47.3868011852188,"longitude":8.53980729902371},"attribution":[{"name":"EEA","url":"http://www.eea.europa.eu/themes/air/air-quality"}],"sourceName":"EEA Switzerland","sourceType":"government","mobile":false}
{"date":{"utc":"2018-11-09T23:00:00.000Z","local":"2018-11-10T00:00:00+01:00"},"parameter":"so2","value":6.118,"unit":"µg/m³","averagingPeriod":{"unit":"hours","value":1},"location":"MK0041A","city":"Tetovo Municipality","country":"MK","coordinates":{"latitude":42.0044399994659,"longitude":20.96807},"attribution":[{"name":"EEA","url":"http://www.eea.europa.eu/themes/air/air-quality"}],"sourceName":"EEA Macedonia","sourceType":"government","mobile":false}
{"date":{"utc":"2018-11-10T00:00:00.000Z","local":"2018-11-10T08:00:00+08:00"},"parameter":"o3","value":58.1,"unit":"µg/m³","averagingPeriod":{"value":1,"unit":"hours"},"location":"Kwun Tong","city":"Kowloon","country":"HK","coordinates":{"longitude":114.22472222222223,"latitude":22.313333333333333},"attribution":[{"name":"Environmental Protection Department","url":"https://data.gov.hk/en-data/dataset/hk-epd-airteam-past24hr-pc-of-individual-air-quality-monitoring-stations"}],"sourceName":"Hong Kong","sourceType":"government","mobile":false}
{"date":{"utc":"2018-11-09T23:00:00.000Z","local":"2018-11-10T10:00:00+11:00"},"parameter":"pm10","value":6.5,"unit":"µg/m³","averagingPeriod":{"value":24,"unit":"hours"},"location":"Rozelle","city":"Sydney East","country":"AU","coordinates":{"latitude":-33.8658333,"longitude":151.1625},"attribution":[{"name":"NSW - Office of Environment & Heritage","url":"http://www.environment.nsw.gov.au/"}],"sourceName":"Australia - New South Wales","sourceType":"government","mobile":false}
{"date":{"utc":"2018-11-09T22:00:00.000Z","local":"2018-11-09T23:00:00+01:00"},"parameter":"o3","value":35.6041,"unit":"µg/m³","averagingPeriod":{"unit":"hours","value":1},"location":"RS0031A","city":"Južnobački upravni okrug","country":"RS","coordinates":{"latitude":45.238642,"longitude":19.835704},"attribution":[{"name":"EEA","url":"http://www.eea.europa.eu/themes/air/air-quality"}],"sourceName":"EEA Servia","sourceType":"government","mobile":false}
{"date":{"utc":"2018-11-10T00:30:00.000Z","local":"2018-11-10T06:00:00+05:30"},"parameter":"pm25","value":284.26,"unit":"µg/m³","averagingPeriod":{"unit":"hours","value":0.25},"location":"Burari Crossing, New Delhi - IMD","city":"Delhi","country":"IN","coordinates":{"latitude":28.7256504,"longitude":77.2011573},"attribution":[{"name":"Central Pollution Control Board","url":"https://app.cpcbccr.com/ccr/#/caaqm-dashboard-all/caaqm-landing"}],"sourceName":"caaqm","sourceType":"government","mobile":false}
{"date":{"utc":"2018-11-10T00:00:00.000Z","local":"2018-11-10T01:00:00+01:00"},"parameter":"co","value":0.3248,"unit":"µg/m³","averagingPeriod":{"value":1,"unit":"hours"},"location":"Amsterdam-Van Diemenstraat","city":"Amsterdam","country":"NL","coordinates":{"latitude":52.39,"longitude":4.88781},"attribution":[{"name":"RIVM","url":"http://www.lml.rivm.nl/"},{"name":"GGD A'dam"}],"sourceName":"Netherlands","sourceType":"government","mobile":false}
{"date":{"utc":"2018-11-10T00:00:00.000Z","local":"2018-11-10T01:00:00+01:00"},"parameter":"o3","value":83.2,"unit":"µg/m³","averagingPeriod":{"unit":"hours","value":1},"location":"MT00004","city":"Zejtun (Citta' Beland)","country":"MT","coordinates":{"latitude":35.8522911094898,"longitude":14.53898621},"attribution":[{"name":"EEA","url":"http://www.eea.europa.eu/themes/air/air-quality"}],"sourceName":"EEA Malta","sourceType":"government","mobile":false}
{"date":{"utc":"2018-11-09T22:00:00.000Z","local":"2018-11-09T23:00:00+01:00"},"parameter":"co","value":535.85,"unit":"µg/m³","averagingPeriod":{"unit":"hours","value":1},"location":"CZ0UULD","city":"Ústecký","country":"CZ","coordinates":{"latitude":50.6831245422363,"longitude":13.9978733062744},"attribution":[{"name":"EEA","url":"http://www.eea.europa.eu/themes/air/air-quality"}],"sourceName":"EEA Czech Republic","sourceType":"government","mobile":false}
{"date":{"utc":"2018-11-09T23:00:00.000Z","local":"2018-11-10T00:00:00+01:00"},"parameter":"co","value":328.164,"unit":"µg/m³","averagingPeriod":{"unit":"hours","value":1},"location":"SK0407A","city":"Bratislavský kraj","country":"SK","coordinates":{"latitude":48.4366669994672,"longitude":17.019722},"attribution":[{"name":"EEA","url":"http://www.eea.europa.eu/themes/air/air-quality"}],"sourceName":"EEA Slovakia","sourceType":"government","mobile":false}
{"date":{"utc":"2018-11-10T00:00:00.000Z","local":"2018-11-10T01:00:00+01:00"},"parameter":"no2","value":42.1500925,"unit":"µg/m³","averagingPeriod":{"unit":"hours","value":1},"location":"HU0027A","city":"Borsod-Abaúj-Zemplén","country":"HU","coordinates":{"latitude":48.1069141113793,"longitude":20.7899801149633},"attribution":[{"name":"EEA","url":"http://www.eea.europa.eu/themes/air/air-quality"}],"sourceName":"EEA Hungary","sourceType":"government","mobile":false}
{"date":{"utc":"2018-11-09T23:00:00.000Z","local":"2018-11-10T01:00:00+02:00"},"parameter":"o3","value":7.435791,"unit":"µg/m³","averagingPeriod":{"unit":"hours","value":1},"location":"LV0019A","city":"Riga","country":"LV","coordinates":{"latitude":56.9506059995096,"longitude":24.115872},"attribution":[{"name":"EEA","url":"http://www.eea.europa.eu/themes/air/air-quality"}],"sourceName":"EEA Latvia","sourceType":"government","mobile":false}
{"date":{"utc":"2018-11-10T00:00:00.000Z","local":"2018-11-10T10:00:00+10:00"},"parameter":"so2","value":0.002,"unit":"ppm","averagingPeriod":{"value":1,"unit":"hours"},"location":"Wynnum West","city":"South East Queensland","country":"AU","coordinates":{"latitude":-27.4379,"longitude":153.15},"attribution":[{"name":"Department of Environment and Heritage Protection","url":"https://data.qld.gov.au/dataset/air-quality-monitoring-live-data-feed/resource/50410fbe-8766-45cd-a259-c4c1f3c89dd1"},{"name":"Department of Environment and Heritage Protection","url":"http://www.qld.gov.au/environment/pollution/monitoring/air-monitoring/seq/#wynnum"}],"sourceName":"Australia - Queensland","sourceType":"government","mobile":false}
{"date":{"utc":"2018-11-10T00:00:00.000Z","local":"2018-11-10T01:00:00+01:00"},"parameter":"no2","value":9.37,"unit":"µg/m³","averagingPeriod":{"unit":"hours","value":1},"location":"DK0031R","city":"Midtjylland","country":"DK","coordinates":{"latitude":56.2903769274682,"longitude":8.42740110752183},"attribution":[{"name":"EEA","url":"http://www.eea.europa.eu/themes/air/air-quality"}],"sourceName":"EEA Denmark","sourceType":"government","mobile":false}
{"date":{"utc":"2018-11-09T23:00:00.000Z","local":"2018-11-10T01:00:00+02:00"},"parameter":"o3","value":23.8,"unit":"µg/m³","averagingPeriod":{"unit":"hours","value":1},"location":"FI00363","city":"Northern Savonia","country":"FI","coordinates":{"latitude":62.893599999565,"longitude":27.66952},"attribution":[{"name":"EEA","url":"http://www.eea.europa.eu/themes/air/air-quality"}],"sourceName":"EEA Finland","sourceType":"government","mobile":false}
{"date":{"utc":"2018-11-09T21:00:00.000Z","local":"2018-11-09T21:00:00+00:00"},"parameter":"o3","value":33,"unit":"µg/m³","averagingPeriod":{"unit":"hours","value":1},"location":"PT03072","city":"Lisboa","country":"PT","coordinates":{"latitude":38.748611,"longitude":-9.148889},"attribution":[{"name":"EEA","url":"http://www.eea.europa.eu/themes/air/air-quality"}],"sourceName":"EEA Portugal","sourceType":"government","mobile":false}
{"date":{"utc":"2018-11-09T22:00:00.000Z","local":"2018-11-09T23:00:00+01:00"},"parameter":"so2","value":7.43,"unit":"µg/m³","averagingPeriod":{"unit":"hours","value":1},"location":"HR0022A","city":"Splitsko-dalmatinska","country":"HR","coordinates":{"latitude":43.5106527772416,"longitude":16.4493416666667},"attribution":[{"name":"EEA","url":"http://www.eea.europa.eu/themes/air/air-quality"}],"sourceName":"EEA Croatia","sourceType":"government","mobile":false}
{"date":{"utc":"2018-11-09T23:00:00.000Z","local":"2018-11-10T00:00:00+01:00"},"parameter":"pm10","value":4.6657,"unit":"µg/m³","averagingPeriod":{"unit":"hours","value":1},"location":"CH0004R","city":"Neuchâtel","country":"CH","coordinates":{"latitude":47.0495154343676,"longitude":6.97920907168707},"attribution":[{"name":"EEA","url":"http://www.eea.europa.eu/themes/air/air-quality"}],"sourceName":"EEA Switzerland","sourceType":"government","mobile":false}
{"date":{"utc":"2018-11-10T00:30:00.000Z","local":"2018-11-10T06:00:00+05:30"},"parameter":"pm10","value":386.8,"unit":"µg/m³","averagingPeriod":{"unit":"hours","value":0.25},"location":"Burari Crossing, New Delhi - IMD","city":"Delhi","country":"IN","coordinates":{"latitude":28.7256504,"longitude":77.2011573},"attribution":[{"name":"Central Pollution Control Board","url":"https://app.cpcbccr.com/ccr/#/caaqm-dashboard-all/caaqm-landing"}],"sourceName":"caaqm","sourceType":"government","mobile":false}
{"date":{"utc":"2018-11-09T22:00:00.000Z","local":"2018-11-09T23:00:00+01:00"},"parameter":"o3","value":23.45123,"unit":"µg/m³","averagingPeriod":{"unit":"hours","value":1},"location":"RS0032A","city":"Grad Beograd","country":"RS","coordinates":{"latitude":44.82112,"longitude":20.459113},"attribution":[{"name":"EEA","url":"http://www.eea.europa.eu/themes/air/air-quality"}],"sourceName":"EEA Servia","sourceType":"government","mobile":false}
{"date":{"utc":"2018-11-10T00:00:00.000Z","local":"2018-11-10T08:00:00+08:00"},"parameter":"so2","value":4.2,"unit":"µg/m³","averagingPeriod":{"value":1,"unit":"hours"},"location":"Kwun Tong","city":"Kowloon","country":"HK","coordinates":{"longitude":114.22472222222223,"latitude":22.313333333333333},"attribution":[{"name":"Environmental Protection Department","url":"https://data.gov.hk/en-data/dataset/hk-epd-airteam-past24hr-pc-of-individual-air-quality-monitoring-stations"}],"sourceName":"Hong Kong","sourceType":"government","mobile":false}
{"date":{"utc":"2018-11-10T00:00:00.000Z","local":"2018-11-10T01:00:00+01:00"},"parameter":"co","value":0.305,"unit":"µg/m³","averagingPeriod":{"value":1,"unit":"hours"},"location":"Amsterdam-Vondelpark","city":"Amsterdam","country":"NL","coordinates":{"latitude":52.3597,"longitude":4.86621},"attribution":[{"name":"RIVM","url":"http://www.lml.rivm.nl/"},{"name":"GGD A'dam"}],"sourceName":"Netherlands","sourceType":"government","mobile":false}
{"date":{"utc":"2018-11-09T23:00:00.000Z","local":"2018-11-10T10:00:00+11:00"},"parameter":"o3","value":0.019,"unit":"ppm","averagingPeriod":{"value":1,"unit":"hours"},"location":"Lindfield","city":"Sydney East","country":"AU","coordinates":{"latitude":-33.7827778,"longitude":151.15},"attribution":[{"name":"NSW - Office of Environment & Heritage","url":"http://www.environment.nsw.gov.au/"}],"sourceName":"Australia - New South Wales","sourceType":"government","mobile":false}
{"date":{"utc":"2018-11-09T22:00:00.000Z","local":"2018-11-09T23:00:00+01:00"},"parameter":"so2","value":4.3091734,"unit":"µg/m³","averagingPeriod":{"unit":"hours","value":1},"location":"MK0031A","city":"Aerodrom Municipality","country":"MK","coordinates":{"latitude":41.978329999466,"longitude":21.47},"attribution":[{"name":"EEA","url":"http://www.eea.europa.eu/themes/air/air-quality"}],"sourceName":"EEA Macedonia","sourceType":"government","mobile":false}
{"date":{"utc":"2018-11-10T00:00:00.000Z","local":"2018-11-10T01:00:00+01:00"},"parameter":"o3","value":16.9,"unit":"µg/m³","averagingPeriod":{"unit":"hours","value":1},"location":"MT00008","city":"Attard","country":"MT","coordinates":{"latitude":35.8900179994896,"longitude":14.434464},"attribution":[{"name":"EEA","url":"http://www.eea.europa.eu/themes/air/air-quality"}],"sourceName":"EEA Malta","sourceType":"government","mobile":false}
{"date":{"utc":"2018-11-10T00:00:00.000Z","local":"2018-11-10T01:00:00+01:00"},"parameter":"no2","value":7.87,"unit":"µg/m³","averagingPeriod":{"unit":"hours","value":1},"location":"DK0045A","city":"Hovedstaden","country":"DK","coordinates":{"latitude":55.7002810664676,"longitude":12.5614121124285},"attribution":[{"name":"EEA","url":"http://www.eea.europa.eu/themes/air/air-quality"}],"sourceName":"EEA Denmark","sourceType":"government","mobile":false}
{"date":{"utc":"2018-11-10T00:00:00.000Z","local":"2018-11-10T10:00:00+10:00"},"parameter":"pm10","value":13.9,"unit":"µg/m³","averagingPeriod":{"value":1,"unit":"hours"},"location":"Wynnum West","city":"South East Queensland","country":"AU","coordinates":{"latitude":-27.4379,"longitude":153.15},"attribution":[{"name":"Department of Environment and Heritage Protection","url":"https://data.qld.gov.au/dataset/air-quality-monitoring-live-data-feed/resource/50410fbe-8766-45cd-a259-c4c1f3c89dd1"},{"name":"Department of Environment and Heritage Protection","url":"http://www.qld.gov.au/environment/pollution/monitoring/air-monitoring/seq/#wynnum"}],"sourceName":"Australia - Queensland","sourceType":"government","mobile":false}
{"date":{"utc":"2018-11-09T23:00:00.000Z","local":"2018-11-10T01:00:00+02:00"},"parameter":"o3","value":41.603516,"unit":"µg/m³","averagingPeriod":{"unit":"hours","value":1},"location":"LV0007A","city":"Ventspils","country":"LV","coordinates":{"latitude":57.4046329995131,"longitude":21.591989},"attribution":[{"name":"EEA","url":"http://www.eea.europa.eu/themes/air/air-quality"}],"sourceName":"EEA Latvia","sourceType":"government","mobile":false}
{"date":{"utc":"2018-11-09T23:00:00.000Z","local":"2018-11-10T00:00:00+01:00"},"parameter":"co","value":1726.78,"unit":"µg/m³","averagingPeriod":{"unit":"hours","value":1},"location":"SK0008A","city":"Žilinský kraj","country":"SK","coordinates":{"latitude":49.0791664094688,"longitude":19.30252457},"attribution":[{"name":"EEA","url":"http://www.eea.europa.eu/themes/air/air-quality"}],"sourceName":"EEA Slovakia","sourceType":"government","mobile":false}
{"date":{"utc":"2018-11-10T00:00:00.000Z","local":"2018-11-10T01:00:00+01:00"},"parameter":"no2","value":29.1875825,"unit":"µg/m³","averagingPeriod":{"unit":"hours","value":1},"location":"HU0024A","city":"Gyor-Moson-Sopron","country":"HU","coordinates":{"latitude":47.6852798494656,"longitude":17.63944435},"attribution":[{"name":"EEA","url":"http://www.eea.europa.eu/themes/air/air-quality"}],"sourceName":"EEA Hungary","sourceType":"government","mobile":false}
{"date":{"utc":"2018-11-09T22:00:00.000Z","local":"2018-11-09T23:00:00+01:00"},"parameter":"co","value":463.63002,"unit":"µg/m³","averagingPeriod":{"unit":"hours","value":1},"location":"CZ0HHKB","city":"Královéhradecký","country":"CZ","coordinates":{"latitude":50.1953620910644,"longitude":15.8463764190674},"attribution":[{"name":"EEA","url":"http://www.eea.europa.eu/themes/air/air-quality"}],"sourceName":"EEA Czech Republic","sourceType":"government","mobile":false}
{"date":{"utc":"2018-11-09T23:00:00.000Z","local":"2018-11-10T10:00:00+11:00"},"parameter":"no2","value":0.0017000000000000001,"unit":"ppm","averagingPeriod":{"value":1,"unit":"hours"},"location":"Lindfield","city":"Sydney East","country":"AU","coordinates":{"latitude":-33.7827778,"longitude":151.15},"attribution":[{"name":"NSW - Office of Environment & Heritage","url":"http://www.environment.nsw.gov.au/"}],"sourceName":"Australia - New South Wales","sourceType":"government","mobile":false}
{"date":{"utc":"2018-11-10T00:00:00.000Z","local":"2018-11-10T01:00:00+01:00"},"parameter":"co","value":0.3274,"unit":"µg/m³","averagingPeriod":{"value":1,"unit":"hours"},"location":"IJmuiden-Kanaaldijk","city":"IJmuiden","country":"NL","coordinates":{"latitude":52.463,"longitude":4.60184},"attribution":[{"name":"RIVM","url":"http://www.lml.rivm.nl/"},{"name":"Prov. N-Holland"}],"sourceName":"Netherlands","sourceType":"government","mobile":false}
{"date":{"utc":"2018-11-10T00:00:00.000Z","local":"2018-11-10T08:00:00+08:00"},"parameter":"pm10","value":45,"unit":"µg/m³","averagingPeriod":{"value":1,"unit":"hours"},"location":"Kwun Tong","city":"Kowloon","country":"HK","coordinates":{"longitude":114.22472222222223,"latitude":22.313333333333333},"attribution":[{"name":"Environmental Protection Department","url":"https://data.gov.hk/en-data/dataset/hk-epd-airteam-past24hr-pc-of-individual-air-quality-monitoring-stations"}],"sourceName":"Hong Kong","sourceType":"government","mobile":false}
{"date":{"utc":"2018-11-09T22:00:00.000Z","local":"2018-11-09T23:00:00+01:00"},"parameter":"o3","value":15.48453,"unit":"µg/m³","averagingPeriod":{"unit":"hours","value":1},"location":"RS0034A","city":"Severnobanatski upravni okrug","country":"RS","coordinates":{"latitude":45.821483,"longitude":20.454008},"attribution":[{"name":"EEA","url":"http://www.eea.europa.eu/themes/air/air-quality"}],"sourceName":"EEA Servia","sourceType":"government","mobile":false}
{"date":{"utc":"2018-11-10T00:30:00.000Z","local":"2018-11-10T06:00:00+05:30"},"parameter":"no2","value":43.85,"unit":"µg/m³","averagingPeriod":{"unit":"hours","value":0.25},"location":"Burari Crossing, New Delhi - IMD","city":"Delhi","country":"IN","coordinates":{"latitude":28.7256504,"longitude":77.2011573},"attribution":[{"name":"Central Pollution Control Board","url":"https://app.cpcbccr.com/ccr/#/caaqm-dashboard-all/caaqm-landing"}],"sourceName":"caaqm","sourceType":"government","mobile":false}
{"date":{"utc":"2018-11-09T21:00:00.000Z","local":"2018-11-09T21:00:00+00:00"},"parameter":"o3","value":59.9,"unit":"µg/m³","averagingPeriod":{"unit":"hours","value":1},"location":"PT03082","city":"Lisboa","country":"PT","coordinates":{"latitude":38.738889,"longitude":-9.2075},"attribution":[{"name":"EEA","url":"http://www.eea.europa.eu/themes/air/air-quality"}],"sourceName":"EEA Portugal","sourceType":"government","mobile":false}
{"date":{"utc":"2018-11-09T21:00:00.000Z","local":"2018-11-09T16:00:00-05:00"},"parameter":"pm25","value":18,"unit":"µg/m³","averagingPeriod":{"value":1,"unit":"hours"},"location":"US Diplomatic Post: Lima","city":"Lima","country":"PE","coordinates":{"latitude":-12.099398,"longitude":-76.96888},"attribution":[{"name":"EPA AirNow DOS","url":"http://airnow.gov/index.cfm?action=airnow.global_summary"}],"sourceName":"StateAir_Lima","sourceType":"government","mobile":false}
{"date":{"utc":"2018-11-09T23:00:00.000Z","local":"2018-11-10T01:00:00+02:00"},"parameter":"o3","value":11.87,"unit":"µg/m³","averagingPeriod":{"unit":"hours","value":1},"location":"FI00460","city":"Southwest Finland","country":"FI","coordinates":{"latitude":60.4253199995396,"longitude":22.09611},"attribution":[{"name":"EEA","url":"http://www.eea.europa.eu/themes/air/air-quality"}],"sourceName":"EEA Finland","sourceType":"government","mobile":false}
{"date":{"utc":"2018-11-10T00:00:00.000Z","local":"2018-11-10T01:00:00+01:00"},"parameter":"o3","value":3.1,"unit":"µg/m³","averagingPeriod":{"unit":"hours","value":1},"location":"MT00005","city":"Msida","country":"MT","coordinates":{"latitude":35.8958358794896,"longitude":14.48998642},"attribution":[{"name":"EEA","url":"http://www.eea.europa.eu/themes/air/air-quality"}],"sourceName":"EEA Malta","sourceType":"government","mobile":false}
{"date":{"utc":"2018-11-09T22:00:00.000Z","local":"2018-11-09T23:00:00+01:00"},"parameter":"so2","value":11.3,"unit":"µg/m³","averagingPeriod":{"unit":"hours","value":1},"location":"HR0007A","city":"Grad Zagreb","country":"HR","coordinates":{"latitude":45.8003388883523,"longitude":15.9740722222222},"attribution":[{"name":"EEA","url":"http://www.eea.europa.eu/themes/air/air-quality"}],"sourceName":"EEA Croatia","sourceType":"government","mobile":false}
{"date":{"utc":"2018-11-09T22:00:00.000Z","local":"2018-11-09T23:00:00+01:00"},"parameter":"so2","value":1.01078936,"unit":"µg/m³","averagingPeriod":{"unit":"hours","value":1},"location":"MK0038A","city":"Bitola Municipality","country":"MK","coordinates":{"latitude":41.0302799994681,"longitude":21.33667},"attribution":[{"name":"EEA","url":"http://www.eea.europa.eu/themes/air/air-quality"}],"sourceName":"EEA Macedonia","sourceType":"government","mobile":false}
{"date":{"utc":"2018-11-10T00:00:00.000Z","local":"2018-11-10T10:00:00+10:00"},"parameter":"pm25","value":3.6,"unit":"µg/m³","averagingPeriod":{"value":1,"unit":"hours"},"location":"Wynnum West","city":"South East Queensland","country":"AU","coordinates":{"latitude":-27.4379,"longitude":153.15},"attribution":[{"name":"Department of Environment and Heritage Protection","url":"https://data.qld.gov.au/dataset/air-quality-monitoring-live-data-feed/resource/50410fbe-8766-45cd-a259-c4c1f3c89dd1"},{"name":"Department of Environment and Heritage Protection","url":"http://www.qld.gov.au/environment/pollution/monitoring/air-monitoring/seq/#wynnum"}],"sourceName":"Australia - Queensland","sourceType":"government","mobile":false}
{"date":{"utc":"2018-11-10T00:00:00.000Z","local":"2018-11-10T01:00:00+01:00"},"parameter":"no2","value":8.82,"unit":"µg/m³","averagingPeriod":{"unit":"hours","value":1},"location":"DK0053A","city":"Nordjylland","country":"DK","coordinates":{"latitude":57.0466523886598,"longitude":9.93087546594131},"attribution":[{"name":"EEA","url":"http://www.eea.europa.eu/themes/air/air-quality"}],"sourceName":"EEA Denmark","sourceType":"government","mobile":false}
{"date":{"utc":"2018-11-10T00:00:00.000Z","local":"2018-11-10T01:00:00+01:00"},"parameter":"no2","value":30.628685,"unit":"µg/m³","averagingPeriod":{"unit":"hours","value":1},"location":"HU0023A","city":"Hajdú-Bihar","country":"HU","coordinates":{"latitude":47.5133323694653,"longitude":21.62444496},"attribution":[{"name":"EEA","url":"http://www.eea.europa.eu/themes/air/air-quality"}],"sourceName":"EEA Hungary","sourceType":"government","mobile":false}
{"date":{"utc":"2018-11-10T00:30:00.000Z","local":"2018-11-10T06:00:00+05:30"},"parameter":"co","value":360,"unit":"µg/m³","averagingPeriod":{"unit":"hours","value":0.25},"location":"Burari Crossing, New Delhi - IMD","city":"Delhi","country":"IN","coordinates":{"latitude":28.7256504,"longitude":77.2011573},"attribution":[{"name":"Central Pollution Control Board","url":"https://app.cpcbccr.com/ccr/#/caaqm-dashboard-all/caaqm-landing"}],"sourceName":"caaqm","sourceType":"government","mobile":false}
{"date":{"utc":"2018-11-10T00:00:00.000Z","local":"2018-11-10T08:00:00+08:00"},"parameter":"pm25","value":28,"unit":"µg/m³","averagingPeriod":{"value":1,"unit":"hours"},"location":"Kwun Tong","city":"Kowloon","country":"HK","coordinates":{"longitude":114.22472222222223,"latitude":22.313333333333333},"attribution":[{"name":"Environmental Protection Department","url":"https://data.gov.hk/en-data/dataset/hk-epd-airteam-past24hr-pc-of-individual-air-quality-monitoring-stations"}],"sourceName":"Hong Kong","sourceType":"government","mobile":false}
{"date":{"utc":"2018-11-09T23:00:00.000Z","local":"2018-11-10T00:00:00+01:00"},"parameter":"co","value":604.476,"unit":"µg/m³","averagingPeriod":{"unit":"hours","value":1},"location":"SK0045A","city":"Trnavský kraj","country":"SK","coordinates":{"latitude":48.371109009467,"longitude":17.58501816},"attribution":[{"name":"EEA","url":"http://www.eea.europa.eu/themes/air/air-quality"}],"sourceName":"EEA Slovakia","sourceType":"government","mobile":false}
{"date":{"utc":"2018-11-09T22:00:00.000Z","local":"2018-11-09T23:00:00+01:00"},"parameter":"co","value":923.00004,"unit":"µg/m³","averagingPeriod":{"unit":"hours","value":1},"location":"CZ0ZUHR","city":"Zlínský","country":"CZ","coordinates":{"latitude":49.0679512023926,"longitude":17.4668483734131},"attribution":[{"name":"EEA","url":"http://www.eea.europa.eu/themes/air/air-quality"}],"sourceName":"EEA Czech Republic","sourceType":"government","mobile":false}
{"date":{"utc":"2018-11-09T22:00:00.000Z","local":"2018-11-09T17:00:00-05:00"},"parameter":"pm25","value":18,"unit":"µg/m³","averagingPeriod":{"value":1,"unit":"hours"},"location":"US Diplomatic Post: Lima","city":"Lima","country":"PE","coordinates":{"latitude":-12.099398,"longitude":-76.96888},"attribution":[{"name":"EPA AirNow DOS","url":"http://airnow.gov/index.cfm?action=airnow.global_summary"}],"sourceName":"StateAir_Lima","sourceType":"government","mobile":false}
{"date":{"utc":"2018-11-10T00:00:00.000Z","local":"2018-11-10T01:00:00+01:00"},"parameter":"co","value":0.343,"unit":"µg/m³","averagingPeriod":{"value":1,"unit":"hours"},"location":"Wijk aan Zee-Burgemeester Rothestraat","city":"Wijk aan Zee","country":"NL","coordinates":{"latitude":52.494,"longitude":4.60199},"attribution":[{"name":"RIVM","url":"http://www.lml.rivm.nl/"},{"name":"Prov. N-Holland"}],"sourceName":"Netherlands","sourceType":"government","mobile":false}
{"date":{"utc":"2018-11-09T23:00:00.000Z","local":"2018-11-10T10:00:00+11:00"},"parameter":"co","value":0.1,"unit":"ppm","averagingPeriod":{"value":8,"unit":"hours"},"location":"Lindfield","city":"Sydney East","country":"AU","coordinates":{"latitude":-33.7827778,"longitude":151.15},"attribution":[{"name":"NSW - Office of Environment & Heritage","url":"http://www.environment.nsw.gov.au/"}],"sourceName":"Australia - New South Wales","sourceType":"government","mobile":false}
{"date":{"utc":"2018-11-09T23:00:00.000Z","local":"2018-11-10T01:00:00+02:00"},"parameter":"o3","value":14.765203,"unit":"µg/m³","averagingPeriod":{"unit":"hours","value":1},"location":"FI00893","city":"Kymenlaakso","country":"FI","coordinates":{"latitude":60.5300199995406,"longitude":27.6754},"attribution":[{"name":"EEA","url":"http://www.eea.europa.eu/themes/air/air-quality"}],"sourceName":"EEA Finland","sourceType":"government","mobile":false}
{"date":{"utc":"2018-11-09T21:00:00.000Z","local":"2018-11-09T21:00:00+00:00"},"parameter":"o3","value":58.9,"unit":"µg/m³","averagingPeriod":{"unit":"hours","value":1},"location":"PT03095","city":"Setúbal","country":"PT","coordinates":{"latitude":38.658611,"longitude":-9.066944},"attribution":[{"name":"EEA","url":"http://www.eea.europa.eu/themes/air/air-quality"}],"sourceName":"EEA Portugal","sourceType":"government","mobile":false}
{"date":{"utc":"2018-11-10T00:00:00.000Z","local":"2018-11-10T01:00:00+01:00"},"parameter":"o3","value":82.5,"unit":"µg/m³","averagingPeriod":{"unit":"hours","value":1},"location":"MT00007","city":"Gharb","country":"MT","coordinates":{"latitude":36.0670700094886,"longitude":14.19715309},"attribution":[{"name":"EEA","url":"http://www.eea.europa.eu/themes/air/air-quality"}],"sourceName":"EEA Malta","sourceType":"government","mobile":false}
{"date":{"utc":"2018-11-09T22:00:00.000Z","local":"2018-11-09T23:00:00+01:00"},"parameter":"so2","value":0.3457867,"unit":"µg/m³","averagingPeriod":{"unit":"hours","value":1},"location":"MK0034A","city":"Kocani Municipality","country":"MK","coordinates":{"latitude":41.9138899994661,"longitude":22.41585},"attribution":[{"name":"EEA","url":"http://www.eea.europa.eu/themes/air/air-quality"}],"sourceName":"EEA Macedonia","sourceType":"government","mobile":false}
{"date":{"utc":"2018-11-09T22:00:00.000Z","local":"2018-11-09T23:00:00+01:00"},"parameter":"so2","value":6.4,"unit":"µg/m³","averagingPeriod":{"unit":"hours","value":1},"location":"HR0005A","city":"Primorsko-goranska","country":"HR","coordinates":{"latitude":45.3207944439076,"longitude":14.4835111111111},"attribution":[{"name":"EEA","url":"http://www.eea.europa.eu/themes/air/air-quality"}],"sourceName":"EEA Croatia","sourceType":"government","mobile":false}
{"date":{"utc":"2018-11-09T23:00:00.000Z","local":"2018-11-09T18:00:00-05:00"},"parameter":"pm25","value":23,"unit":"µg/m³","averagingPeriod":{"value":1,"unit":"hours"},"location":"US Diplomatic Post: Lima","city":"Lima","country":"PE","coordinates":{"latitude":-12.099398,"longitude":-76.96888},"attribution":[{"name":"EPA AirNow DOS","url":"http://airnow.gov/index.cfm?action=airnow.global_summary"}],"sourceName":"StateAir_Lima","sourceType":"government","mobile":false}
{"date":{"utc":"2018-11-09T22:00:00.000Z","local":"2018-11-09T23:00:00+01:00"},"parameter":"co","value":1662.0001,"unit":"µg/m³","averagingPeriod":{"unit":"hours","value":1},"location":"CZ0TOCB","city":"Moravskoslezský","country":"CZ","coordinates":{"latitude":49.8398475646973,"longitude":18.2899761199951},"attribution":[{"name":"EEA","url":"http://www.eea.europa.eu/themes/air/air-quality"}],"sourceName":"EEA Czech Republic","sourceType":"government","mobile":false}
{"date":{"utc":"2018-11-10T00:00:00.000Z","local":"2018-11-10T10:00:00+10:00"},"parameter":"so2","value":-9999,"unit":"ppm","averagingPeriod":{"value":1,"unit":"hours"},"location":"Lytton","city":"South East Queensland","country":"AU","coordinates":{"latitude":-27.4065,"longitude":153.153},"attribution":[{"name":"Department of Environment and Heritage Protection","url":"https://data.qld.gov.au/dataset/air-quality-monitoring-live-data-feed/resource/50410fbe-8766-45cd-a259-c4c1f3c89dd1"},{"name":"Department of Environment and Heritage Protection","url":"http://www.qld.gov.au/environment/pollution/monitoring/air-monitoring/seq/#wynnum"}],"sourceName":"Australia - Queensland","sourceType":"government","mobile":false}
{"date":{"utc":"2018-11-10T00:30:00.000Z","local":"2018-11-10T06:00:00+05:30"},"parameter":"o3","value":43,"unit":"µg/m³","averagingPeriod":{"unit":"hours","value":0.25},"location":"Burari Crossing, New Delhi - IMD","city":"Delhi","country":"IN","coordinates":{"latitude":28.7256504,"longitude":77.2011573},"attribution":[{"name":"Central Pollution Control Board","url":"https://app.cpcbccr.com/ccr/#/caaqm-dashboard-all/caaqm-landing"}],"sourceName":"caaqm","sourceType":"government","mobile":false}
{"date":{"utc":"2018-11-10T00:00:00.000Z","local":"2018-11-10T08:00:00+08:00"},"parameter":"no2","value":33.3,"unit":"µg/m³","averagingPeriod":{"value":1,"unit":"hours"},"location":"Sham Shui Po","city":"Kowloon","country":"HK","coordinates":{"longitude":114.15916666666668,"latitude":22.330277777777777},"attribution":[{"name":"Environmental Protection Department","url":"https://data.gov.hk/en-data/dataset/hk-epd-airteam-past24hr-pc-of-individual-air-quality-monitoring-stations"}],"sourceName":"Hong Kong","sourceType":"government","mobile":false}
{"date":{"utc":"2018-11-10T00:00:00.000Z","local":"2018-11-10T01:00:00+01:00"},"parameter":"co","value":0.2543,"unit":"µg/m³","averagingPeriod":{"value":1,"unit":"hours"},"location":"Badhoevedorp-Sloterweg","city":"Badhoevedorp","country":"NL","coordinates":{"latitude":52.334,"longitude":4.77401},"attribution":[{"name":"RIVM","url":"http://www.lml.rivm.nl/"},{"name":"Prov. N-Holland"}],"sourceName":"Netherlands","sourceType":"government","mobile":false}
{"date":{"utc":"2018-11-10T00:00:00.000Z","local":"2018-11-10T01:00:00+01:00"},"parameter":"no2","value":27.20161,"unit":"µg/m³","averagingPeriod":{"unit":"hours","value":1},"location":"HU0026A","city":"Borsod-Abaúj-Zemplén","country":"HU","coordinates":{"latitude":48.2472228994667,"longitude":20.61640358},"attribution":[{"name":"EEA","url":"http://www.eea.europa.eu/themes/air/air-quality"}],"sourceName":"EEA Hungary","sourceType":"government","mobile":false}
{"date":{"utc":"2018-11-09T23:00:00.000Z","local":"2018-11-10T00:00:00+01:00"},"parameter":"co","value":428.852,"unit":"µg/m³","averagingPeriod":{"unit":"hours","value":1},"location":"SK0269A","city":"Nitriansky kraj","country":"SK","coordinates":{"latitude":48.3094559994669,"longitude":18.076831},"attribution":[{"name":"EEA","url":"http://www.eea.europa.eu/themes/air/air-quality"}],"sourceName":"EEA Slovakia","sourceType":"government","mobile":false}
{"date":{"utc":"2018-11-10T00:00:00.000Z","local":"2018-11-10T01:00:00+01:00"},"parameter":"no2","value":13.49,"unit":"µg/m³","averagingPeriod":{"unit":"hours","value":1},"location":"DK0054A","city":"Syddanmark","country":"DK","coordinates":{"latitude":54.746388216707,"longitude":10.7363947812113},"attribution":[{"name":"EEA","url":"http://www.eea.europa.eu/themes/air/air-quality"}],"sourceName":"EEA Denmark","sourceType":"government","mobile":false}
{"date":{"utc":"2018-11-09T23:00:00.000Z","local":"2018-11-10T10:00:00+11:00"},"parameter":"so2","value":0.159,"unit":"ppm","averagingPeriod":{"value":1,"unit":"hours"},"location":"Lindfield","city":"Sydney East","country":"AU","coordinates":{"latitude":-33.7827778,"longitude":151.15},"attribution":[{"name":"NSW - Office of Environment & Heritage","url":"http://www.environment.nsw.gov.au/"}],"sourceName":"Australia - New South Wales","sourceType":"government","mobile":false}
{"date":{"utc":"2018-11-09T23:00:00.000Z","local":"2018-11-10T02:00:00+03:00"},"parameter":"o3","value":42.8878157,"unit":"µg/m³","averagingPeriod":{"unit":"hours","value":1},"location":"FI00357","city":"Lapland","country":"FI","coordinates":{"latitude":68.477009999634,"longitude":28.3031},"attribution":[{"name":"EEA","url":"http://www.eea.europa.eu/themes/air/air-quality"}],"sourceName":"EEA Finland","sourceType":"government","mobile":false}
{"date":{"utc":"2018-11-09T22:00:00.000Z","local":"2018-11-09T23:00:00+01:00"},"parameter":"co","value":342,"unit":"µg/m³","averagingPeriod":{"unit":"hours","value":1},"location":"CZ0ALIB","city":"Hlavní město Praha","country":"CZ","coordinates":{"latitude":50.0073051452637,"longitude":14.44593334198},"attribution":[{"name":"EEA","url":"http://www.eea.europa.eu/themes/air/air-quality"}],"sourceName":"EEA Czech Republic","sourceType":"government","mobile":false}
{"date":{"utc":"2018-11-09T22:00:00.000Z","local":"2018-11-09T23:00:00+01:00"},"parameter":"so2","value":1.94179202,"unit":"µg/m³","averagingPeriod":{"unit":"hours","value":1},"location":"MK0042A","city":"Mavrovo and Rostusa Municipality","country":"MK","coordinates":{"latitude":41.5358299994669,"longitude":20.6989},"attribution":[{"name":"EEA","url":"http://www.eea.europa.eu/themes/air/air-quality"}],"sourceName":"EEA Macedonia","sourceType":"government","mobile":false}
{"date":{"utc":"2018-11-09T22:00:00.000Z","local":"2018-11-09T23:00:00+01:00"},"parameter":"so2","value":1.043,"unit":"µg/m³","averagingPeriod":{"unit":"hours","value":1},"location":"HR0023A","city":"Splitsko-dalmatinska","country":"HR","coordinates":{"latitude":43.5481194439082,"longitude":16.4349611111111},"attribution":[{"name":"EEA","url":"http://www.eea.europa.eu/themes/air/air-quality"}],"sourceName":"EEA Croatia","sourceType":"government","mobile":false}
{"date":{"utc":"2018-11-09T21:00:00.000Z","local":"2018-11-09T21:00:00+00:00"},"parameter":"o3","value":62.7,"unit":"µg/m³","averagingPeriod":{"unit":"hours","value":1},"location":"PT05007","city":"Faro","country":"PT","coordinates":{"latitude":37.015,"longitude":-7.926667},